% program   : RTKLIB ver.demo5 b33c
% inp file  : /home/hegyi/Paripa/Downloaded_zips/PildoBox20522115g.obs
% inp file  : /home/hegyi/Paripa/Reference_for_Kinematic/PildoBox205202211506.obs
% inp file  : /home/hegyi/Paripa/Downloaded_zips/PildoBox20522115g.nav
% obs start : 2022/04/25 06:00:02.0 GPST (week2207 108002.0s)
% obs end   : 2022/04/25 07:00:01.0 GPST (week2207 111601.0s)
% pos mode  : kinematic
% freqs     : L1+L2/E5b
% solution  : forward
% elev mask : 10.0 deg
% dynamics  : off
% tidecorr  : off
% ionos opt : broadcast
% tropo opt : saastamoinen
% ephemeris : broadcast
% amb res   : fix and hold
% val thres : 3.0
% antenna1  :                       ( 0.0000  0.0000  0.0000)
% antenna2  :                       ( 0.0000  0.0000  0.0000)
% ref pos   : 47.479024318  19.057702703  178.8463
%
% (lat/lon/height=WGS84/ellipsoidal,Q=1:fix,2:float,3:sbas,4:dgps,5:single,6:ppp,ns=# of satellites)
%  GPST                  latitude(deg) longitude(deg)  height(m)   Q  ns   sdn(m)   sde(m)   sdu(m)  sdne(m)  sdeu(m)  sdun(m) age(s)  ratio
2022/04/25 06:00:02.000   47.447039466   19.216765687   196.0226   2   9   1.9373   1.3416   4.6518  -0.4000  -0.8684   1.3960   0.00    0.0
2022/04/25 06:00:03.000   47.447038877   19.216765173   195.9407   2   9   1.4336   0.9983   3.4793  -0.2938  -0.5695   0.9381   0.00    0.0
2022/04/25 06:00:04.000   47.447037937   19.216764881   195.6671   2   9   1.1889   0.8302   2.8938  -0.2436  -0.4444   0.7378   0.00    0.0
2022/04/25 06:00:05.000   47.447037973   19.216764654   195.6610   2   9   1.0368   0.7258   2.5236  -0.2122  -0.3726   0.6174   0.00    0.0
2022/04/25 06:00:06.000   47.447037793   19.216764634   195.6122   2   9   0.9303   0.6529   2.2604  -0.1900  -0.3247   0.5326   0.00    0.0
2022/04/25 06:00:07.000   47.447038247   19.216764748   195.6182   2   9   0.8501   0.5983   2.0595  -0.1731  -0.2896   0.4670   0.00    0.0
2022/04/25 06:00:08.000   47.447038940   19.216764570   195.7317   2   9   0.7868   0.5554   1.8987  -0.1595  -0.2623   0.4128   0.00    0.0
2022/04/25 06:00:09.000   47.447039016   19.216764689   195.7630   2   9   0.7351   0.5205   1.7653  -0.1482  -0.2401   0.3657   0.00    0.0
2022/04/25 06:00:10.000   47.447039535   19.216764750   195.8797   2   9   0.6917   0.4914   1.6519  -0.1386  -0.2215   0.3233   0.00    0.0
2022/04/25 06:00:11.000   47.447039643   19.216764608   196.0149   2   9   0.6545   0.4667   1.5535  -0.1302  -0.2054   0.2840   0.00    0.0
2022/04/25 06:00:12.000   47.447039721   19.216764716   195.9976   2   9   0.6222   0.4453   1.4669  -0.1228  -0.1914   0.2464   0.00    0.0
2022/04/25 06:00:13.000   47.447039800   19.216764467   196.0463   2   9   0.5938   0.4266   1.3897  -0.1162  -0.1789   0.2094   0.00    0.0
2022/04/25 06:00:14.000   47.447040075   19.216764311   196.0983   2   9   0.5685   0.4100   1.3201  -0.1102  -0.1677   0.1714   0.00    0.0
2022/04/25 06:00:15.000   47.447040155   19.216764158   196.1339   2   9   0.5457   0.3952   1.2571  -0.1047  -0.1575   0.1302   0.00    0.0
2022/04/25 06:00:16.000   47.447040144   19.216763961   196.1456   2   9   0.5252   0.3819   1.1994  -0.0996  -0.1482   0.0786   0.00    0.0
2022/04/25 06:00:17.000   47.447039882   19.216763851   196.0239   2   9   0.5066   0.3698   1.1472  -0.0951  -0.1397  -0.0531   1.00    0.0
2022/04/25 06:00:26.000   47.447039764   19.216764005   195.9669   2   9   0.4816   0.3581   1.0446  -0.0857  -0.1191  -0.1967   0.00    0.0
2022/04/25 06:00:30.000   47.447039961   19.216764070   195.9941   2   9   0.4589   0.3472   0.9508  -0.0754  -0.1004  -0.2589   0.00    0.0
2022/04/25 06:00:31.000   47.447040098   19.216764051   195.9952   2   9   0.4408   0.3372   0.8828  -0.0671  -0.0877  -0.2860   0.00    0.0
2022/04/25 06:00:32.000   47.447040177   19.216763966   196.0269   2   9   0.4254   0.3280   0.8300  -0.0603  -0.0784  -0.2996   0.00    0.0
2022/04/25 06:00:33.000   47.447040067   19.216763973   196.0386   2   9   0.4120   0.3196   0.7871  -0.0544  -0.0713  -0.3065   0.00    0.0
2022/04/25 06:00:34.000   47.447040140   19.216763905   196.0381   2   9   0.4001   0.3118   0.7510  -0.0493  -0.0657  -0.3097   0.00    0.0
2022/04/25 06:00:37.000   47.447040194   19.216763929   196.0517   2   9   0.3886   0.3044   0.7157  -0.0440  -0.0603  -0.3127   0.00    0.0
2022/04/25 06:00:38.000   47.447040241   19.216763967   196.0346   2   9   0.3785   0.2975   0.6864  -0.0390  -0.0562  -0.3131   1.00    0.0
2022/04/25 06:00:39.000   47.447040275   19.216763953   196.0173   2   9   0.3693   0.2911   0.6624  -0.0348  -0.0530  -0.3116   2.00    0.0
2022/04/25 06:00:42.000   47.447040245   19.216763980   196.0591   2   9   0.3602   0.2849   0.6360  -0.0296  -0.0500  -0.3114   0.00    0.0
2022/04/25 06:00:45.000   47.447040114   19.216764080   196.0750   2   9   0.3514   0.2789   0.6105  -0.0228  -0.0474  -0.3110   0.00    0.0
2022/04/25 06:00:46.000   47.447040070   19.216764182   196.0923   2   9   0.3435   0.2733   0.5891  -0.0146  -0.0457  -0.3093   1.00    0.0
2022/04/25 06:00:49.000   47.447040131   19.216764111   196.1054   2   9   0.3357   0.2679   0.5677   0.0092  -0.0444  -0.3077   0.00    0.0
2022/04/25 06:00:50.000   47.447040215   19.216764080   196.1519   2   9   0.3286   0.2628   0.5491   0.0189  -0.0438  -0.3054   0.00    0.0
2022/04/25 06:00:51.000   47.447040352   19.216763916   196.1392   2   9   0.3219   0.2579   0.5326   0.0243  -0.0435  -0.3027   0.00    0.0
2022/04/25 06:00:52.000   47.447040368   19.216763848   196.1582   2   9   0.3157   0.2534   0.5177   0.0280  -0.0434  -0.2998   0.00    0.0
2022/04/25 06:00:53.000   47.447040412   19.216763756   196.1764   2   9   0.3099   0.2490   0.5042   0.0309  -0.0435  -0.2967   0.00    0.0
2022/04/25 06:00:54.000   47.447040521   19.216763703   196.1863   2   9   0.3044   0.2449   0.4918   0.0331  -0.0436  -0.2935   0.00    0.0
2022/04/25 06:00:55.000   47.447040569   19.216763591   196.1644   2   9   0.2992   0.2409   0.4804   0.0349  -0.0437  -0.2902   0.00    0.0
2022/04/25 06:00:56.000   47.447040617   19.216763581   196.1488   2   9   0.2942   0.2372   0.4697   0.0364  -0.0439  -0.2870   0.00    0.0
2022/04/25 06:00:57.000   47.447040662   19.216763642   196.1542   2   9   0.2895   0.2336   0.4598   0.0377  -0.0441  -0.2838   0.00    0.0
2022/04/25 06:00:58.000   47.447040673   19.216763623   196.1755   2   9   0.2850   0.2301   0.4505   0.0388  -0.0443  -0.2807   0.00    0.0
2022/04/25 06:00:59.000   47.447040719   19.216763591   196.1742   2   9   0.2807   0.2268   0.4417   0.0397  -0.0445  -0.2776   0.00    0.0
2022/04/25 06:01:00.000   47.447040721   19.216763554   196.1957   2   9   0.2766   0.2236   0.4335   0.0406  -0.0447  -0.2745   0.00    0.0
2022/04/25 06:01:01.000   47.447040762   19.216763611   196.2186   2   9   0.2727   0.2206   0.4256   0.0412  -0.0449  -0.2716   0.00    0.0
2022/04/25 06:01:02.000   47.447037245   19.216762312   196.6853   1   9   0.0072   0.0050   0.0178  -0.0013  -0.0021   0.0038   0.00    3.5
2022/04/25 06:01:03.000   47.447037243   19.216762302   196.6896   1   9   0.0072   0.0051   0.0179  -0.0016  -0.0022   0.0038   0.00    3.5
2022/04/25 06:01:04.000   47.447037252   19.216762318   196.6852   1   9   0.0072   0.0049   0.0178  -0.0017  -0.0023   0.0038   0.00    3.6
2022/04/25 06:01:05.000   47.447037252   19.216762302   196.6870   1   9   0.0071   0.0052   0.0178  -0.0018  -0.0024   0.0036   0.00    3.6
2022/04/25 06:01:06.000   47.447037256   19.216762302   196.6878   1   9   0.0071   0.0049   0.0178  -0.0018  -0.0022   0.0037   0.00    3.7
2022/04/25 06:01:07.000   47.447037235   19.216762310   196.6880   1   9   0.0071   0.0052   0.0179  -0.0019  -0.0023   0.0037   0.00    3.8
2022/04/25 06:01:08.000   47.447037255   19.216762313   196.6848   1   9   0.0072   0.0053   0.0178  -0.0017  -0.0023   0.0037   0.00    3.9
2022/04/25 06:01:09.000   47.447037259   19.216762295   196.6889   1   9   0.0071   0.0050   0.0178  -0.0018  -0.0024   0.0036   0.00    3.9
2022/04/25 06:01:10.000   47.447037283   19.216762301   196.6875   1   9   0.0071   0.0051   0.0178  -0.0017  -0.0022   0.0037   0.00    4.0
2022/04/25 06:01:11.000   47.447037256   19.216762304   196.6874   1   9   0.0070   0.0050   0.0178  -0.0013  -0.0022   0.0036   0.00    4.0
2022/04/25 06:01:12.000   47.447037260   19.216762313   196.6806   1   9   0.0071   0.0050   0.0178  -0.0013  -0.0023   0.0037   0.00    4.0
2022/04/25 06:01:13.000   47.447037225   19.216762305   196.6837   1   9   0.0071   0.0050   0.0178  -0.0015  -0.0023   0.0037   0.00    4.0
2022/04/25 06:01:14.000   47.447037251   19.216762307   196.6829   1   9   0.0071   0.0049   0.0178  -0.0010  -0.0021   0.0037   0.00    4.1
2022/04/25 06:01:15.000   47.447037266   19.216762299   196.6794   1   9   0.0072   0.0051   0.0178  -0.0020  -0.0024   0.0037   0.00    4.1
2022/04/25 06:01:16.000   47.447037256   19.216762291   196.6835   1   9   0.0072   0.0048   0.0178  -0.0016  -0.0022   0.0037   0.00    4.2
2022/04/25 06:01:17.000   47.447037259   19.216762296   196.6827   1   9   0.0070   0.0048   0.0178  -0.0014  -0.0022   0.0037   0.00    4.2
2022/04/25 06:01:18.000   47.447037245   19.216762286   196.6817   1   9   0.0071   0.0050   0.0178  -0.0015  -0.0022   0.0036   0.00    4.3
2022/04/25 06:01:19.000   47.447037232   19.216762287   196.6813   1   9   0.0071   0.0051   0.0178  -0.0013  -0.0022   0.0036   0.00    4.4
2022/04/25 06:01:20.000   47.447037266   19.216762301   196.6825   1   9   0.0072   0.0049   0.0178  -0.0019  -0.0022   0.0037   0.00    4.4
2022/04/25 06:01:21.000   47.447037235   19.216762314   196.6790   1   9   0.0071   0.0051   0.0178  -0.0010  -0.0022   0.0038   0.00    4.4
2022/04/25 06:01:22.000   47.447037239   19.216762302   196.6839   1   9   0.0072   0.0048   0.0178  -0.0015  -0.0021   0.0037   0.00   17.4
2022/04/25 06:01:23.000   47.447037262   19.216762290   196.6834   1   9   0.0070   0.0048   0.0178  -0.0007  -0.0020   0.0036   0.00   29.4
2022/04/25 06:01:24.000   47.447037262   19.216762270   196.6908   1   9   0.0071   0.0049   0.0178  -0.0018  -0.0022   0.0035   0.00   41.7
2022/04/25 06:01:25.000   47.447037241   19.216762278   196.6839   1   9   0.0071   0.0052   0.0178  -0.0016  -0.0023   0.0037   0.00   46.1
2022/04/25 06:01:26.000   47.447037265   19.216762301   196.6839   1   9   0.0070   0.0052   0.0178  -0.0012  -0.0023   0.0036   0.00   48.5
2022/04/25 06:01:27.000   47.447037249   19.216762301   196.6835   1   9   0.0072   0.0047   0.0178  -0.0017  -0.0021   0.0037   0.00   51.3
2022/04/25 06:01:33.000   47.447037253   19.216762296   196.6798   1   9   0.0070   0.0046   0.0178  -0.0015  -0.0021   0.0035   0.00   53.4
2022/04/25 06:01:34.000   47.447037260   19.216762285   196.6846   1   9   0.0072   0.0049   0.0178  -0.0017  -0.0021   0.0036   0.00   55.8
2022/04/25 06:01:35.000   47.447037260   19.216762294   196.6816   1   9   0.0071   0.0048   0.0178  -0.0016  -0.0021   0.0035   0.00   58.5
2022/04/25 06:01:36.000   47.447037273   19.216762305   196.6925   1   9   0.0072   0.0049   0.0178  -0.0019  -0.0022   0.0037   0.00   60.3
2022/04/25 06:01:37.000   47.447037249   19.216762285   196.6990   1   9   0.0072   0.0052   0.0178  -0.0019  -0.0022   0.0036   0.00   62.4
2022/04/25 06:01:38.000   47.447037251   19.216762287   196.6919   1   9   0.0071   0.0049   0.0178  -0.0015  -0.0022   0.0036   0.00   65.3
2022/04/25 06:01:39.000   47.447037250   19.216762288   196.6891   1   9   0.0071   0.0052   0.0178  -0.0012  -0.0023   0.0037   0.00   68.3
2022/04/25 06:01:40.000   47.447037241   19.216762293   196.6844   1   9   0.0072   0.0051   0.0178  -0.0018  -0.0023   0.0035   0.00   69.5
2022/04/25 06:01:41.000   47.447037258   19.216762286   196.6882   1   9   0.0072   0.0052   0.0178  -0.0014  -0.0022   0.0037   0.00   71.4
2022/04/25 06:01:42.000   47.447037248   19.216762294   196.6851   1   9   0.0071   0.0049   0.0178  -0.0019  -0.0021   0.0035   0.00   72.9
2022/04/25 06:01:43.000   47.447037251   19.216762291   196.6875   1   9   0.0071   0.0050   0.0178  -0.0012  -0.0021   0.0036   0.00   75.1
2022/04/25 06:01:44.000   47.447037261   19.216762287   196.6893   1   9   0.0070   0.0052   0.0178  -0.0020  -0.0024   0.0035   0.00   77.7
2022/04/25 06:01:45.000   47.447037259   19.216762278   196.6902   1   9   0.0073   0.0052   0.0178  -0.0019  -0.0022   0.0036   0.00   80.3
2022/04/25 06:01:46.000   47.447037256   19.216762297   196.6821   1   9   0.0072   0.0051   0.0178  -0.0018  -0.0023   0.0035   0.00   82.9
2022/04/25 06:01:47.000   47.447037258   19.216762294   196.6884   1   9   0.0070   0.0048   0.0178  -0.0008  -0.0020   0.0034   0.00   84.6
2022/04/25 06:01:48.000   47.447037252   19.216762287   196.6828   1   9   0.0071   0.0049   0.0178  -0.0018  -0.0023   0.0034   0.00   86.5
2022/04/25 06:01:49.000   47.447037262   19.216762277   196.6829   1   9   0.0071   0.0045   0.0178  -0.0003  -0.0020   0.0035   0.00   88.7
2022/04/25 06:01:50.000   47.447037259   19.216762281   196.6858   1   9   0.0071   0.0051   0.0178  -0.0010  -0.0023   0.0035   0.00   91.7
2022/04/25 06:01:51.000   47.447037277   19.216762289   196.6838   1   9   0.0072   0.0054   0.0178  -0.0019  -0.0022   0.0036   0.00   95.1
2022/04/25 06:01:52.000   47.447037262   19.216762278   196.6842   1   9   0.0072   0.0051   0.0178  -0.0015  -0.0022   0.0036   0.00   97.5
2022/04/25 06:01:53.000   47.447037257   19.216762297   196.6819   1   9   0.0070   0.0048   0.0178  -0.0009  -0.0021   0.0033   0.00   99.0
2022/04/25 06:01:54.000   47.447037275   19.216762293   196.6832   1   9   0.0074   0.0051   0.0180  -0.0017  -0.0024   0.0038   1.00  100.2
2022/04/25 06:01:56.000   47.447037249   19.216762281   196.6919   1   9   0.0072   0.0053   0.0177  -0.0021  -0.0023   0.0035   0.00  102.1
2022/04/25 06:01:57.000   47.447037252   19.216762300   196.6882   1   9   0.0072   0.0050   0.0178  -0.0020  -0.0023   0.0035   0.00  104.1
2022/04/25 06:01:58.000   47.447037249   19.216762290   196.6863   1   9   0.0072   0.0051   0.0178  -0.0018  -0.0022   0.0035   0.00  105.3
2022/04/25 06:02:00.000   47.447037249   19.216762297   196.6881   1   9   0.0073   0.0053   0.0178  -0.0015  -0.0022   0.0036   0.00  106.7
2022/04/25 06:02:01.000   47.447037255   19.216762274   196.6835   1   9   0.0072   0.0051   0.0177  -0.0019  -0.0022   0.0036   0.00  109.5
2022/04/25 06:02:02.000   47.447037252   19.216762290   196.6881   1   9   0.0071   0.0051   0.0178  -0.0019  -0.0022   0.0034   0.00  110.9
2022/04/25 06:02:03.000   47.447037252   19.216762275   196.6831   1   9   0.0071   0.0048   0.0178  -0.0018  -0.0022   0.0034   0.00  113.2
2022/04/25 06:02:04.000   47.447037269   19.216762289   196.6851   1   9   0.0071   0.0047   0.0178  -0.0013  -0.0021   0.0034   0.00  114.3
2022/04/25 06:02:05.000   47.447037264   19.216762308   196.6789   1   9   0.0071   0.0048   0.0178  -0.0008  -0.0022   0.0034   0.00  115.9
2022/04/25 06:02:06.000   47.447037246   19.216762277   196.6887   1   9   0.0070   0.0050   0.0177  -0.0017  -0.0023   0.0033   0.00  116.6
2022/04/25 06:02:07.000   47.447037238   19.216762292   196.6823   1   9   0.0071   0.0051   0.0177  -0.0015  -0.0023   0.0034   0.00  116.6
2022/04/25 06:02:08.000   47.447037256   19.216762270   196.6855   1   9   0.0072   0.0050   0.0178  -0.0011  -0.0021   0.0035   0.00  117.8
2022/04/25 06:02:09.000   47.447037249   19.216762283   196.6848   1   9   0.0071   0.0051   0.0177  -0.0020  -0.0023   0.0035   0.00  119.3
2022/04/25 06:02:10.000   47.447037246   19.216762277   196.6822   1   9   0.0071   0.0050   0.0177  -0.0015  -0.0022   0.0035   0.00  121.4
2022/04/25 06:02:11.000   47.447037263   19.216762292   196.6819   1   9   0.0071   0.0050   0.0177  -0.0018  -0.0021   0.0033   0.00  123.0
2022/04/25 06:02:12.000   47.447037241   19.216762272   196.6867   1   9   0.0072   0.0051   0.0177  -0.0015  -0.0021   0.0035   0.00  125.4
2022/04/25 06:02:13.000   47.447037258   19.216762304   196.6773   1   9   0.0071   0.0049   0.0177  -0.0013  -0.0021   0.0034   0.00  127.3
2022/04/25 06:02:14.000   47.447037266   19.216762266   196.6839   1   9   0.0070   0.0046   0.0177  -0.0010  -0.0022   0.0033   0.00  130.0
2022/04/25 06:02:15.000   47.447037244   19.216762300   196.6763   1   9   0.0071   0.0049   0.0177  -0.0015  -0.0023   0.0033   0.00  131.8
2022/04/25 06:02:16.000   47.447037258   19.216762269   196.6854   1   9   0.0071   0.0051   0.0177  -0.0020  -0.0023   0.0034   0.00  134.9
2022/04/25 06:02:17.000   47.447037262   19.216762290   196.6799   1   9   0.0071   0.0050   0.0177  -0.0019  -0.0021   0.0033   0.00  137.5
2022/04/25 06:02:18.000   47.447037267   19.216762272   196.6836   1   9   0.0071   0.0048   0.0177  -0.0013  -0.0021   0.0034   0.00  138.6
2022/04/25 06:02:19.000   47.447037280   19.216762269   196.6893   1   9   0.0070   0.0051   0.0177  -0.0019  -0.0024   0.0033   0.00  140.8
2022/04/25 06:02:20.000   47.447037269   19.216762283   196.6809   1   9   0.0069   0.0050   0.0177  -0.0011  -0.0022   0.0032   0.00  141.5
2022/04/25 06:02:21.000   47.447037264   19.216762287   196.6847   1   9   0.0072   0.0054   0.0177  -0.0021  -0.0023   0.0034   0.00  142.5
2022/04/25 06:02:22.000   47.447037274   19.216762288   196.6836   1   9   0.0071   0.0050   0.0177  -0.0013  -0.0022   0.0034   0.00  145.1
2022/04/25 06:02:23.000   47.447037260   19.216762273   196.6866   1   9   0.0072   0.0053   0.0177  -0.0019  -0.0023   0.0033   0.00  147.3
2022/04/25 06:02:24.000   47.447037252   19.216762290   196.6852   1   9   0.0071   0.0051   0.0177  -0.0014  -0.0022   0.0034   0.00  147.7
2022/04/25 06:02:25.000   47.447037246   19.216762284   196.6828   1   9   0.0071   0.0051   0.0177  -0.0021  -0.0022   0.0033   0.00  149.1
2022/04/25 06:02:26.000   47.447037248   19.216762284   196.6832   1   9   0.0071   0.0049   0.0177  -0.0014  -0.0021   0.0033   0.00  151.1
2022/04/25 06:02:27.000   47.447037245   19.216762294   196.6842   1   9   0.0072   0.0050   0.0177  -0.0021  -0.0022   0.0033   0.00  152.0
2022/04/25 06:02:28.000   47.447037275   19.216762297   196.6832   1   9   0.0071   0.0053   0.0177  -0.0021  -0.0023   0.0033   0.00  152.3
2022/04/25 06:02:29.000   47.447037246   19.216762298   196.6790   1   9   0.0071   0.0048   0.0177  -0.0015  -0.0022   0.0034   0.00  152.5
2022/04/25 06:02:30.000   47.447037240   19.216762284   196.6829   1   9   0.0072   0.0053   0.0177  -0.0019  -0.0023   0.0033   0.00  152.8
2022/04/25 06:02:31.000   47.447037237   19.216762289   196.6806   1   9   0.0071   0.0051   0.0177  -0.0014  -0.0023   0.0034   0.00  154.2
2022/04/25 06:02:32.000   47.447037244   19.216762281   196.6849   1   9   0.0071   0.0049   0.0177  -0.0020  -0.0021   0.0033   0.00  154.1
2022/04/25 06:02:42.000   47.447037246   19.216762275   196.6817   1   9   0.0072   0.0051   0.0177  -0.0015  -0.0021   0.0033   0.00  155.2
2022/04/25 06:02:44.000   47.447037258   19.216762279   196.6772   1   9   0.0072   0.0050   0.0177  -0.0019  -0.0022   0.0033   0.00  157.7
2022/04/25 06:02:46.000   47.447037236   19.216762284   196.6825   1   9   0.0071   0.0050   0.0177  -0.0012  -0.0021   0.0033   0.00  159.0
2022/04/25 06:02:47.000   47.447037246   19.216762281   196.6801   1   9   0.0073   0.0050   0.0177  -0.0016  -0.0022   0.0033   0.00  159.6
2022/04/25 06:02:48.000   47.447037259   19.216762301   196.6839   1   9   0.0070   0.0052   0.0177  -0.0016  -0.0022   0.0031   0.00  160.7
2022/04/25 06:02:50.000   47.447037263   19.216762273   196.6828   1   9   0.0070   0.0051   0.0177  -0.0017  -0.0022   0.0031   0.00  161.9
2022/04/25 06:02:51.000   47.447037246   19.216762273   196.6794   1   9   0.0073   0.0050   0.0176  -0.0022  -0.0022   0.0033   0.00  162.9
2022/04/25 06:02:52.000   47.447037244   19.216762287   196.6812   1   9   0.0072   0.0050   0.0177  -0.0018  -0.0021   0.0032   0.00  164.4
2022/04/25 06:02:53.000   47.447037244   19.216762288   196.6799   1   9   0.0070   0.0049   0.0177  -0.0019  -0.0022   0.0030   0.00  165.5
2022/04/25 06:02:54.000   47.447037254   19.216762310   196.6833   1   9   0.0073   0.0053   0.0177  -0.0018  -0.0023   0.0033   0.00  167.4
2022/04/25 06:02:55.000   47.447037257   19.216762285   196.6891   1   9   0.0071   0.0050   0.0177  -0.0019  -0.0022   0.0032   0.00  169.2
2022/04/25 06:02:56.000   47.447037253   19.216762288   196.6832   1   9   0.0069   0.0047   0.0177  -0.0013  -0.0021   0.0031   0.00  170.6
2022/04/25 06:02:57.000   47.447037254   19.216762273   196.6833   1   9   0.0069   0.0050   0.0176  -0.0019  -0.0022   0.0030   0.00  170.2
2022/04/25 06:02:58.000   47.447037254   19.216762282   196.6852   1   9   0.0072   0.0051   0.0177  -0.0018  -0.0023   0.0031   0.00  171.4
2022/04/25 06:02:59.000   47.447037248   19.216762280   196.6811   1   9   0.0072   0.0051   0.0176  -0.0021  -0.0022   0.0032   0.00  172.5
2022/04/25 06:03:00.000   47.447037243   19.216762273   196.6850   1   9   0.0071   0.0052   0.0177  -0.0017  -0.0022   0.0032   0.00  172.5
2022/04/25 06:03:01.000   47.447037241   19.216762274   196.6816   1   9   0.0072   0.0050   0.0177  -0.0016  -0.0022   0.0032   0.00  172.5
2022/04/25 06:03:02.000   47.447037250   19.216762286   196.6812   1   9   0.0072   0.0050   0.0177  -0.0012  -0.0021   0.0033   0.00  172.4
2022/04/25 06:03:03.000   47.447037250   19.216762286   196.6844   1   9   0.0071   0.0048   0.0177  -0.0017  -0.0021   0.0031   0.00  172.3
2022/04/25 06:03:04.000   47.447037240   19.216762271   196.6874   1   9   0.0072   0.0051   0.0177  -0.0013  -0.0021   0.0031   0.00  172.5
2022/04/25 06:03:05.000   47.447037250   19.216762282   196.6817   1   9   0.0072   0.0049   0.0176  -0.0021  -0.0023   0.0031   0.00  172.2
2022/04/25 06:03:06.000   47.447037263   19.216762289   196.6792   1   9   0.0070   0.0050   0.0176  -0.0018  -0.0023   0.0030   0.00  173.1
2022/04/25 06:03:07.000   47.447037266   19.216762277   196.6800   1   9   0.0071   0.0050   0.0176  -0.0017  -0.0022   0.0031   0.00  175.0
2022/04/25 06:03:08.000   47.447037257   19.216762275   196.6817   1   9   0.0071   0.0050   0.0176  -0.0017  -0.0022   0.0030   0.00  175.6
2022/04/25 06:03:09.000   47.447037262   19.216762286   196.6807   1   9   0.0069   0.0050   0.0177  -0.0019  -0.0022   0.0029   0.00  177.1
2022/04/25 06:03:10.000   47.447037262   19.216762260   196.6798   1   9   0.0071   0.0051   0.0176  -0.0018  -0.0022   0.0031   0.00  178.5
2022/04/25 06:03:11.000   47.447037288   19.216762277   196.6810   1   9   0.0070   0.0051   0.0177  -0.0016  -0.0023   0.0030   0.00  178.8
2022/04/25 06:03:12.000   47.447037271   19.216762272   196.6818   1   9   0.0071   0.0051   0.0176  -0.0013  -0.0022   0.0030   0.00  179.4
2022/04/25 06:03:13.000   47.447037272   19.216762307   196.6811   1   9   0.0073   0.0051   0.0176  -0.0024  -0.0022   0.0031   0.00  180.6
2022/04/25 06:03:14.000   47.447037275   19.216762285   196.6796   1   9   0.0072   0.0052   0.0176  -0.0021  -0.0022   0.0031   0.00  181.8
2022/04/25 06:03:15.000   47.447037265   19.216762290   196.6779   1   9   0.0072   0.0049   0.0177  -0.0017  -0.0022   0.0030   0.00  182.3
2022/04/25 06:03:16.000   47.447037265   19.216762287   196.6806   1   9   0.0072   0.0048   0.0176  -0.0015  -0.0022   0.0031   0.00  183.0
2022/04/25 06:03:17.000   47.447037253   19.216762272   196.6811   1   9   0.0072   0.0053   0.0176  -0.0018  -0.0022   0.0031   0.00  184.5
2022/04/25 06:03:18.000   47.447037260   19.216762270   196.6806   1   9   0.0072   0.0049   0.0177  -0.0017  -0.0021   0.0031   0.00  185.6
2022/04/25 06:03:19.000   47.447037261   19.216762288   196.6862   1   9   0.0071   0.0050   0.0176  -0.0014  -0.0021   0.0031   0.00  186.8
2022/04/25 06:03:20.000   47.447037253   19.216762277   196.6821   1   9   0.0071   0.0054   0.0176  -0.0020  -0.0023   0.0030   0.00  188.0
2022/04/25 06:03:21.000   47.447037263   19.216762280   196.6785   1   9   0.0070   0.0051   0.0176  -0.0019  -0.0022   0.0029   0.00  189.3
2022/04/25 06:03:22.000   47.447037259   19.216762291   196.6851   1   9   0.0071   0.0050   0.0176  -0.0017  -0.0022   0.0029   0.00  189.9
2022/04/25 06:03:23.000   47.447037252   19.216762278   196.6819   1   9   0.0071   0.0049   0.0177  -0.0017  -0.0023   0.0029   0.00  189.1
2022/04/25 06:03:24.000   47.447037239   19.216762295   196.6841   1   9   0.0072   0.0053   0.0176  -0.0020  -0.0022   0.0030   0.00  189.9
2022/04/25 06:03:25.000   47.447037257   19.216762287   196.6873   1   9   0.0070   0.0052   0.0176  -0.0021  -0.0023   0.0028   0.00  191.4
2022/04/25 06:03:26.000   47.447037243   19.216762287   196.6805   1   9   0.0072   0.0054   0.0176  -0.0024  -0.0023   0.0030   0.00  192.3
2022/04/25 06:03:27.000   47.447037253   19.216762280   196.6826   1   9   0.0073   0.0051   0.0176  -0.0016  -0.0020   0.0031   0.00  192.5
2022/04/25 06:03:28.000   47.447037264   19.216762289   196.6877   1   9   0.0071   0.0052   0.0176  -0.0019  -0.0022   0.0031   0.00  192.9
2022/04/25 06:03:29.000   47.447037265   19.216762270   196.6822   1   9   0.0071   0.0051   0.0176  -0.0020  -0.0022   0.0029   0.00  193.9
2022/04/25 06:03:30.000   47.447037264   19.216762266   196.6857   1   9   0.0072   0.0049   0.0176  -0.0020  -0.0022   0.0030   0.00  194.0
2022/04/25 06:03:31.000   47.447037261   19.216762258   196.6850   1   9   0.0071   0.0048   0.0176  -0.0017  -0.0021   0.0028   0.00  194.7
2022/04/25 06:03:32.000   47.447037258   19.216762276   196.6861   1   9   0.0071   0.0048   0.0176  -0.0006  -0.0020   0.0030   0.00  195.4
2022/04/25 06:03:33.000   47.447037265   19.216762284   196.6833   1   9   0.0071   0.0050   0.0177  -0.0011  -0.0021   0.0028   0.00  196.6
2022/04/25 06:03:34.000   47.447037266   19.216762269   196.6890   1   9   0.0070   0.0050   0.0176  -0.0020  -0.0023   0.0028   0.00  197.6
2022/04/25 06:03:35.000   47.447037262   19.216762290   196.6835   1   9   0.0071   0.0052   0.0176  -0.0018  -0.0021   0.0030   0.00  199.0
2022/04/25 06:03:36.000   47.447037260   19.216762282   196.6845   1   9   0.0070   0.0050   0.0176  -0.0017  -0.0022   0.0029   0.00  200.0
2022/04/25 06:03:37.000   47.447037257   19.216762273   196.6834   1   9   0.0073   0.0052   0.0176  -0.0024  -0.0023   0.0030   0.00  200.2
2022/04/25 06:03:38.000   47.447037291   19.216762272   196.6935   1   9   0.0071   0.0053   0.0176  -0.0022  -0.0023   0.0029   0.00  202.0
2022/04/25 06:03:39.000   47.447037247   19.216762271   196.6896   1   9   0.0072   0.0053   0.0176  -0.0020  -0.0021   0.0030   0.00  203.7
2022/04/25 06:03:40.000   47.447037259   19.216762275   196.6849   1   9   0.0071   0.0053   0.0176  -0.0020  -0.0022   0.0028   0.00  204.7
2022/04/25 06:03:41.000   47.447037255   19.216762282   196.6883   1   9   0.0071   0.0047   0.0176  -0.0013  -0.0020   0.0029   0.00  205.8
2022/04/25 06:03:42.000   47.447037245   19.216762273   196.6840   1   9   0.0071   0.0050   0.0176  -0.0015  -0.0021   0.0029   0.00  206.9
2022/04/25 06:03:43.000   47.447037267   19.216762264   196.6908   1   9   0.0071   0.0051   0.0176  -0.0021  -0.0022   0.0028   0.00  208.3
2022/04/25 06:03:44.000   47.447037263   19.216762288   196.6830   1   9   0.0072   0.0050   0.0176  -0.0017  -0.0021   0.0029   0.00  208.9
2022/04/25 06:03:45.000   47.447037244   19.216762282   196.6822   1   9   0.0070   0.0048   0.0176  -0.0013  -0.0020   0.0028   0.00  210.2
2022/04/25 06:03:46.000   47.447037273   19.216762275   196.6853   1   9   0.0070   0.0049   0.0176  -0.0019  -0.0022   0.0027   0.00  211.3
2022/04/25 06:03:47.000   47.447037257   19.216762277   196.6871   1   9   0.0071   0.0052   0.0176  -0.0014  -0.0021   0.0028   0.00  211.9
2022/04/25 06:03:48.000   47.447037287   19.216762284   196.6839   1   9   0.0073   0.0053   0.0176  -0.0022  -0.0022   0.0030   0.00  213.4
2022/04/25 06:03:49.000   47.447037258   19.216762280   196.6832   1   9   0.0071   0.0053   0.0178  -0.0019  -0.0024   0.0030   1.00  215.3
2022/04/25 06:03:50.000   47.447037268   19.216762273   196.6806   1   9   0.0076   0.0055   0.0185  -0.0020  -0.0027   0.0038   2.00  217.3
2022/04/25 06:03:52.000   47.447037268   19.216762266   196.6846   1   9   0.0071   0.0053   0.0176  -0.0017  -0.0023   0.0027   0.00  219.0
2022/04/25 06:03:53.000   47.447037275   19.216762262   196.6914   1   9   0.0071   0.0052   0.0176  -0.0017  -0.0021   0.0028   0.00  219.6
2022/04/25 06:03:54.000   47.447037257   19.216762274   196.6868   1   9   0.0072   0.0050   0.0176  -0.0015  -0.0020   0.0028   0.00  220.2
2022/04/25 06:03:55.000   47.447037258   19.216762283   196.6904   1   9   0.0071   0.0050   0.0176  -0.0022  -0.0023   0.0027   0.00  221.4
2022/04/25 06:03:56.000   47.447037265   19.216762264   196.6885   1   9   0.0071   0.0049   0.0176  -0.0016  -0.0019   0.0028   0.00  222.2
2022/04/25 06:03:57.000   47.447037249   19.216762277   196.6916   1   9   0.0071   0.0048   0.0176  -0.0014  -0.0021   0.0028   0.00  222.4
2022/04/25 06:03:58.000   47.447037282   19.216762280   196.6890   1   9   0.0071   0.0054   0.0176  -0.0019  -0.0022   0.0028   0.00  222.8
2022/04/25 06:04:00.000   47.447037256   19.216762284   196.6868   1   9   0.0070   0.0051   0.0176  -0.0019  -0.0021   0.0027   0.00  224.0
2022/04/25 06:04:01.000   47.447037239   19.216762286   196.6850   1   9   0.0072   0.0050   0.0176  -0.0018  -0.0021   0.0028   0.00  225.0
2022/04/25 06:04:02.000   47.447037257   19.216762271   196.6853   1   9   0.0072   0.0051   0.0176  -0.0014  -0.0020   0.0028   0.00  226.9
2022/04/25 06:04:03.000   47.447037260   19.216762258   196.6864   1   9   0.0073   0.0051   0.0176  -0.0020  -0.0021   0.0029   0.00  227.6
2022/04/25 06:04:04.000   47.447037260   19.216762269   196.6884   1   9   0.0072   0.0050   0.0176  -0.0020  -0.0021   0.0027   0.00  229.3
2022/04/25 06:04:05.000   47.447037248   19.216762266   196.6855   1   9   0.0072   0.0052   0.0176  -0.0022  -0.0021   0.0028   0.00  229.1
2022/04/25 06:04:06.000   47.447037258   19.216762257   196.6850   1   9   0.0071   0.0052   0.0176  -0.0016  -0.0021   0.0026   0.00  230.3
2022/04/25 06:04:07.000   47.447037244   19.216762259   196.6902   1   9   0.0072   0.0052   0.0176  -0.0020  -0.0022   0.0027   0.00  231.7
2022/04/25 06:04:08.000   47.447037267   19.216762264   196.6879   1   9   0.0071   0.0048   0.0176  -0.0019  -0.0022   0.0025   0.00  233.0
2022/04/25 06:04:09.000   47.447037261   19.216762270   196.6906   1   9   0.0071   0.0054   0.0176  -0.0023  -0.0023   0.0027   0.00  232.8
2022/04/25 06:04:10.000   47.447037255   19.216762266   196.6869   1   9   0.0071   0.0052   0.0176  -0.0018  -0.0021   0.0028   0.00  234.3
2022/04/25 06:04:11.000   47.447037241   19.216762272   196.6897   1   9   0.0072   0.0052   0.0176  -0.0018  -0.0021   0.0028   0.00  235.2
2022/04/25 06:04:12.000   47.447037244   19.216762250   196.6913   1   9   0.0071   0.0054   0.0176  -0.0023  -0.0022   0.0025   0.00  236.8
2022/04/25 06:04:13.000   47.447037260   19.216762252   196.6879   1   9   0.0069   0.0050   0.0176  -0.0017  -0.0021   0.0024   0.00  237.8
2022/04/25 06:04:14.000   47.447037251   19.216762227   196.6939   1   9   0.0071   0.0050   0.0176  -0.0014  -0.0020   0.0026   0.00  239.8
2022/04/25 06:04:15.000   47.447037248   19.216762263   196.6920   1   9   0.0073   0.0052   0.0176  -0.0020  -0.0021   0.0028   0.00  241.2
2022/04/25 06:04:16.000   47.447037268   19.216762240   196.6927   1   9   0.0071   0.0050   0.0176  -0.0016  -0.0020   0.0026   0.00  242.4
2022/04/25 06:04:17.000   47.447037245   19.216762249   196.6934   1   9   0.0072   0.0050   0.0176  -0.0021  -0.0022   0.0026   0.00  244.4
2022/04/25 06:04:18.000   47.447037224   19.216762273   196.6914   1   9   0.0072   0.0051   0.0175  -0.0024  -0.0023   0.0025   0.00  245.5
2022/04/25 06:04:19.000   47.447037237   19.216762270   196.6910   1   9   0.0071   0.0051   0.0176  -0.0016  -0.0021   0.0027   0.00  245.8
2022/04/25 06:04:20.000   47.447037235   19.216762262   196.6969   1   9   0.0072   0.0049   0.0175  -0.0020  -0.0021   0.0025   0.00  246.9
2022/04/25 06:04:21.000   47.447037248   19.216762254   196.6941   1   9   0.0071   0.0050   0.0176  -0.0019  -0.0020   0.0026   0.00  248.6
2022/04/25 06:04:22.000   47.447037253   19.216762273   196.6887   1   9   0.0072   0.0051   0.0176  -0.0018  -0.0020   0.0027   0.00  249.0
2022/04/25 06:04:23.000   47.447037252   19.216762283   196.6955   1   9   0.0072   0.0052   0.0176  -0.0018  -0.0022   0.0026   0.00  249.5
2022/04/25 06:04:24.000   47.447037229   19.216762261   196.6957   1   9   0.0070   0.0052   0.0176  -0.0015  -0.0021   0.0024   0.00  250.6
2022/04/25 06:04:25.000   47.447037241   19.216762274   196.6935   1   9   0.0071   0.0051   0.0176  -0.0017  -0.0021   0.0026   0.00  250.8
2022/04/25 06:04:26.000   47.447037232   19.216762255   196.6931   1   9   0.0072   0.0052   0.0175  -0.0021  -0.0022   0.0026   0.00  250.9
2022/04/25 06:04:27.000   47.447037223   19.216762238   196.6928   1   9   0.0069   0.0051   0.0176  -0.0019  -0.0022   0.0024   0.00  250.7
2022/04/25 06:04:28.000   47.447037247   19.216762255   196.6939   1   9   0.0072   0.0053   0.0176  -0.0020  -0.0022   0.0027   0.00  251.6
2022/04/25 06:04:29.000   47.447037263   19.216762249   196.6924   1   9   0.0071   0.0054   0.0175  -0.0021  -0.0022   0.0025   0.00  252.6
2022/04/25 06:04:30.000   47.447037237   19.216762257   196.6964   1   9   0.0071   0.0048   0.0175  -0.0017  -0.0021   0.0026   0.00  251.6
2022/04/25 06:04:31.000   47.447037249   19.216762256   196.6930   1   9   0.0072   0.0053   0.0176  -0.0017  -0.0021   0.0027   0.00  252.3
2022/04/25 06:04:32.000   47.447037240   19.216762252   196.6967   1   9   0.0071   0.0052   0.0175  -0.0020  -0.0022   0.0024   0.00  253.1
2022/04/25 06:04:33.000   47.447037241   19.216762268   196.6929   1   9   0.0071   0.0051   0.0175  -0.0021  -0.0020   0.0025   0.00  252.4
2022/04/25 06:04:34.000   47.447037231   19.216762275   196.6918   1   9   0.0071   0.0051   0.0175  -0.0020  -0.0022   0.0024   0.00  253.0
2022/04/25 06:04:35.000   47.447037261   19.216762252   196.6939   1   9   0.0072   0.0051   0.0175  -0.0021  -0.0022   0.0027   0.00  253.0
2022/04/25 06:04:36.000   47.447037239   19.216762270   196.6957   1   9   0.0071   0.0050   0.0176  -0.0013  -0.0021   0.0026   0.00  254.4
2022/04/25 06:04:37.000   47.447037237   19.216762267   196.6893   1   9   0.0071   0.0048   0.0175  -0.0012  -0.0019   0.0026   0.00  255.0
2022/04/25 06:04:38.000   47.447037259   19.216762262   196.6950   1   9   0.0071   0.0049   0.0175  -0.0023  -0.0021   0.0024   0.00  256.9
2022/04/25 06:04:39.000   47.447037260   19.216762250   196.6883   1   9   0.0070   0.0050   0.0175  -0.0015  -0.0021   0.0024   0.00  257.1
2022/04/25 06:04:40.000   47.447037253   19.216762250   196.6936   1   9   0.0071   0.0052   0.0176  -0.0019  -0.0021   0.0025   0.00  257.8
2022/04/25 06:04:41.000   47.447037239   19.216762254   196.6910   1   9   0.0072   0.0052   0.0175  -0.0014  -0.0021   0.0025   0.00  258.5
2022/04/25 06:04:42.000   47.447037250   19.216762263   196.6923   1   9   0.0072   0.0050   0.0175  -0.0016  -0.0021   0.0025   0.00  258.7
2022/04/25 06:04:43.000   47.447037248   19.216762265   196.6937   1   9   0.0072   0.0050   0.0176  -0.0016  -0.0022   0.0024   0.00  259.2
2022/04/25 06:04:44.000   47.447037271   19.216762242   196.6867   1   9   0.0071   0.0054   0.0175  -0.0026  -0.0024   0.0023   0.00  259.8
2022/04/25 06:04:45.000   47.447037245   19.216762258   196.6927   1   9   0.0073   0.0053   0.0175  -0.0019  -0.0022   0.0025   0.00  261.1
2022/04/25 06:04:46.000   47.447037243   19.216762264   196.6925   1   9   0.0070   0.0050   0.0175  -0.0017  -0.0021   0.0023   0.00  261.4
2022/04/25 06:04:47.000   47.447037233   19.216762278   196.6936   1   9   0.0071   0.0053   0.0175  -0.0020  -0.0022   0.0023   0.00  262.0
2022/04/25 06:04:48.000   47.447037254   19.216762261   196.6946   1   9   0.0072   0.0051   0.0176  -0.0016  -0.0022   0.0025   0.00  262.1
2022/04/25 06:04:50.000   47.447037266   19.216762289   196.6969   1   9   0.0071   0.0050   0.0175  -0.0015  -0.0020   0.0024   0.00  263.2
2022/04/25 06:04:51.000   47.447037246   19.216762268   196.6908   1   9   0.0073   0.0052   0.0175  -0.0023  -0.0022   0.0024   0.00  263.3
2022/04/25 06:04:52.000   47.447037263   19.216762266   196.6918   1   9   0.0072   0.0052   0.0176  -0.0019  -0.0022   0.0024   0.00  263.1
2022/04/25 06:04:53.000   47.447037249   19.216762258   196.6932   1   9   0.0072   0.0052   0.0175  -0.0017  -0.0020   0.0025   0.00  263.5
2022/04/25 06:04:54.000   47.447037250   19.216762251   196.6988   1   9   0.0071   0.0051   0.0175  -0.0019  -0.0021   0.0024   0.00  263.3
2022/04/25 06:04:55.000   47.447037238   19.216762282   196.6974   1   9   0.0071   0.0051   0.0175  -0.0018  -0.0021   0.0024   0.00  262.2
2022/04/25 06:04:56.000   47.447037240   19.216762250   196.6959   1   9   0.0071   0.0051   0.0175  -0.0018  -0.0021   0.0025   0.00  262.2
2022/04/25 06:04:57.000   47.447037238   19.216762268   196.6965   1   9   0.0070   0.0053   0.0175  -0.0019  -0.0021   0.0022   0.00  262.5
2022/04/25 06:04:58.000   47.447037233   19.216762261   196.7005   1   9   0.0072   0.0050   0.0175  -0.0021  -0.0021   0.0024   0.00  262.1
2022/04/25 06:04:59.000   47.447037257   19.216762259   196.6964   1   9   0.0071   0.0051   0.0175  -0.0018  -0.0020   0.0023   0.00  260.5
2022/04/25 06:05:00.000   47.447037248   19.216762274   196.6988   1   9   0.0071   0.0051   0.0175  -0.0018  -0.0021   0.0023   0.00  260.3
2022/04/25 06:05:01.000   47.447037249   19.216762275   196.6967   1   9   0.0072   0.0051   0.0175  -0.0021  -0.0021   0.0025   0.00  260.3
2022/04/25 06:05:02.000   47.447037248   19.216762254   196.6991   1   9   0.0071   0.0048   0.0175  -0.0014  -0.0020   0.0023   0.00  260.3
2022/04/25 06:05:03.000   47.447037251   19.216762256   196.6945   1   9   0.0072   0.0053   0.0175  -0.0022  -0.0021   0.0024   0.00  261.2
2022/04/25 06:05:04.000   47.447037234   19.216762273   196.6935   1   9   0.0071   0.0049   0.0175  -0.0011  -0.0020   0.0023   0.00  261.4
2022/04/25 06:05:05.000   47.447037255   19.216762274   196.6988   1   9   0.0071   0.0051   0.0175  -0.0015  -0.0020   0.0024   0.00  261.5
2022/04/25 06:05:06.000   47.447037267   19.216762262   196.6958   1   9   0.0072   0.0050   0.0175  -0.0019  -0.0020   0.0023   0.00  261.3
2022/04/25 06:05:07.000   47.447037241   19.216762273   196.6952   1   9   0.0071   0.0052   0.0175  -0.0020  -0.0020   0.0022   0.00  260.9
2022/04/25 06:05:08.000   47.447037260   19.216762242   196.6977   1   9   0.0070   0.0048   0.0175  -0.0018  -0.0020   0.0020   0.00  260.6
2022/04/25 06:05:09.000   47.447037228   19.216762261   196.6984   1   9   0.0072   0.0046   0.0175  -0.0014  -0.0020   0.0023   0.00  260.4
2022/04/25 06:05:10.000   47.447037239   19.216762260   196.6979   1   9   0.0072   0.0051   0.0175  -0.0018  -0.0019   0.0024   0.00  259.9
2022/04/25 06:05:11.000   47.447037253   19.216762249   196.6972   1   9   0.0070   0.0051   0.0175  -0.0010  -0.0020   0.0023   0.00  259.5
2022/04/25 06:05:12.000   47.447037252   19.216762272   196.6945   1   9   0.0073   0.0051   0.0175  -0.0021  -0.0020   0.0024   0.00  259.6
2022/04/25 06:05:13.000   47.447037238   19.216762260   196.6927   1   9   0.0071   0.0050   0.0175  -0.0019  -0.0021   0.0021   0.00  258.4
2022/04/25 06:05:14.000   47.447037233   19.216762277   196.6964   1   9   0.0072   0.0050   0.0175  -0.0016  -0.0019   0.0024   0.00  258.9
2022/04/25 06:05:15.000   47.447037237   19.216762254   196.6951   1   9   0.0072   0.0048   0.0175  -0.0014  -0.0019   0.0022   0.00  257.2
2022/04/25 06:05:16.000   47.447037260   19.216762254   196.7027   1   9   0.0071   0.0050   0.0175  -0.0017  -0.0021   0.0021   0.00  257.4
2022/04/25 06:05:17.000   47.447037254   19.216762271   196.6989   1   9   0.0071   0.0048   0.0175  -0.0016  -0.0020   0.0022   0.00  257.1
2022/04/25 06:05:18.000   47.447037256   19.216762272   196.7019   1   9   0.0072   0.0053   0.0175  -0.0021  -0.0021   0.0022   0.00  255.6
2022/04/25 06:05:19.000   47.447037234   19.216762266   196.6944   1   9   0.0072   0.0051   0.0175  -0.0020  -0.0020   0.0021   0.00  254.4
2022/04/25 06:05:20.000   47.447037241   19.216762261   196.6983   1   9   0.0070   0.0052   0.0175  -0.0022  -0.0021   0.0019   0.00  253.7
2022/04/25 06:05:21.000   47.447037251   19.216762262   196.6940   1   9   0.0071   0.0049   0.0175  -0.0021  -0.0021   0.0020   0.00  253.0
2022/04/25 06:05:22.000   47.447037232   19.216762251   196.6958   1   9   0.0071   0.0051   0.0175  -0.0020  -0.0021   0.0020   0.00  252.5
2022/04/25 06:05:23.000   47.447037252   19.216762244   196.6980   1   9   0.0071   0.0049   0.0175  -0.0017  -0.0020   0.0021   0.00  252.0
2022/04/25 06:05:24.000   47.447037240   19.216762227   196.7027   1   9   0.0071   0.0051   0.0175  -0.0020  -0.0021   0.0018   0.00  250.9
2022/04/25 06:05:25.000   47.447037234   19.216762248   196.6988   1   9   0.0072   0.0054   0.0175  -0.0022  -0.0022   0.0020   0.00  249.8
2022/04/25 06:05:26.000   47.447037233   19.216762244   196.6979   1   9   0.0072   0.0050   0.0175  -0.0014  -0.0017   0.0023   0.00  248.3
2022/04/25 06:05:27.000   47.447037226   19.216762262   196.7026   1   9   0.0073   0.0052   0.0175  -0.0023  -0.0022   0.0022   0.00  247.5
2022/04/25 06:05:28.000   47.447037236   19.216762263   196.6995   1   9   0.0072   0.0051   0.0175  -0.0020  -0.0020   0.0022   0.00  246.7
2022/04/25 06:05:29.000   47.447037242   19.216762266   196.6970   1   9   0.0072   0.0049   0.0175  -0.0017  -0.0019   0.0022   0.00  246.3
2022/04/25 06:05:30.000   47.447037240   19.216762267   196.6988   1   9   0.0072   0.0052   0.0175  -0.0017  -0.0021   0.0020   0.00  245.4
2022/04/25 06:05:31.000   47.447037247   19.216762243   196.6977   1   9   0.0071   0.0049   0.0175  -0.0016  -0.0021   0.0019   0.00  245.3
2022/04/25 06:05:32.000   47.447037234   19.216762238   196.6962   1   9   0.0071   0.0052   0.0174  -0.0021  -0.0022   0.0021   0.00  245.7
2022/04/25 06:05:33.000   47.447037254   19.216762257   196.6976   1   9   0.0072   0.0049   0.0175  -0.0018  -0.0018   0.0021   0.00  246.4
2022/04/25 06:05:34.000   47.447037240   19.216762241   196.6934   1   9   0.0072   0.0049   0.0175  -0.0018  -0.0019   0.0021   0.00  246.7
2022/04/25 06:05:35.000   47.447037245   19.216762243   196.6981   1   9   0.0071   0.0051   0.0175  -0.0025  -0.0021   0.0018   0.00  246.7
2022/04/25 06:05:36.000   47.447037234   19.216762249   196.6967   1   9   0.0071   0.0051   0.0175  -0.0019  -0.0019   0.0019   0.00  245.6
2022/04/25 06:05:37.000   47.447037233   19.216762254   196.6979   1   9   0.0070   0.0050   0.0175  -0.0008  -0.0019   0.0020   0.00  244.2
2022/04/25 06:05:38.000   47.447037226   19.216762257   196.6939   1   9   0.0072   0.0052   0.0175  -0.0017  -0.0021   0.0021   0.00  243.2
2022/04/25 06:05:39.000   47.447037248   19.216762241   196.6933   1   9   0.0070   0.0049   0.0174  -0.0015  -0.0019   0.0020   0.00  242.0
2022/04/25 06:05:40.000   47.447037233   19.216762251   196.6986   1   9   0.0071   0.0051   0.0175  -0.0017  -0.0019   0.0019   0.00  241.1
2022/04/25 06:05:41.000   47.447037209   19.216762229   196.7002   1   9   0.0072   0.0052   0.0174  -0.0021  -0.0021   0.0018   0.00  240.3
2022/04/25 06:05:42.000   47.447037229   19.216762243   196.7000   1   9   0.0072   0.0051   0.0175  -0.0021  -0.0021   0.0021   0.00  240.0
2022/04/25 06:05:43.000   47.447037237   19.216762247   196.7002   1   9   0.0072   0.0052   0.0174  -0.0023  -0.0022   0.0019   0.00  239.2
2022/04/25 06:05:44.000   47.447037239   19.216762263   196.6949   1   9   0.0071   0.0051   0.0175  -0.0019  -0.0020   0.0019   0.00  239.1
2022/04/25 06:05:45.000   47.447037227   19.216762251   196.6957   1   9   0.0071   0.0051   0.0174  -0.0023  -0.0020   0.0019   0.00  237.6
2022/04/25 06:05:46.000   47.447037229   19.216762232   196.7010   1   9   0.0072   0.0054   0.0175  -0.0020  -0.0022   0.0018   0.00  237.1
2022/04/25 06:05:47.000   47.447037226   19.216762249   196.6993   1   9   0.0072   0.0047   0.0175  -0.0019  -0.0019   0.0020   0.00  236.9
2022/04/25 06:05:48.000   47.447037238   19.216762246   196.6967   1   9   0.0071   0.0050   0.0175  -0.0020  -0.0020   0.0018   0.00  236.2
2022/04/25 06:05:50.000   47.447037250   19.216762251   196.6994   1   9   0.0073   0.0054   0.0174  -0.0024  -0.0021   0.0021   0.00  235.8
2022/04/25 06:05:51.000   47.447037231   19.216762250   196.7000   1   9   0.0072   0.0048   0.0175  -0.0018  -0.0019   0.0020   0.00  235.6
2022/04/25 06:05:52.000   47.447037228   19.216762244   196.7003   1   9   0.0071   0.0051   0.0175  -0.0018  -0.0019   0.0018   0.00  235.6
2022/04/25 06:05:53.000   47.447037237   19.216762266   196.6995   1   9   0.0072   0.0052   0.0174  -0.0019  -0.0020   0.0018   0.00  235.1
2022/04/25 06:05:54.000   47.447037238   19.216762252   196.7005   1   9   0.0073   0.0051   0.0175  -0.0018  -0.0020   0.0020   0.00  234.5
2022/04/25 06:05:55.000   47.447037231   19.216762263   196.6998   1   9   0.0072   0.0051   0.0174  -0.0024  -0.0021   0.0019   0.00  233.3
2022/04/25 06:05:56.000   47.447037228   19.216762263   196.6971   1   9   0.0072   0.0052   0.0174  -0.0019  -0.0020   0.0020   0.00  233.2
2022/04/25 06:05:57.000   47.447037220   19.216762247   196.6989   1   9   0.0072   0.0051   0.0175  -0.0021  -0.0021   0.0017   0.00  232.6
2022/04/25 06:05:58.000   47.447037216   19.216762231   196.6988   1   9   0.0072   0.0052   0.0174  -0.0022  -0.0021   0.0019   0.00  231.3
2022/04/25 06:05:59.000   47.447037238   19.216762233   196.6985   1   9   0.0071   0.0051   0.0174  -0.0015  -0.0019   0.0020   0.00  231.0
2022/04/25 06:06:00.000   47.447037230   19.216762253   196.6994   1   9   0.0071   0.0051   0.0174  -0.0018  -0.0020   0.0015   0.00  229.9
2022/04/25 06:06:01.000   47.447037249   19.216762245   196.7007   1   9   0.0071   0.0048   0.0174  -0.0020  -0.0019   0.0016   0.00  230.2
2022/04/25 06:06:02.000   47.447037237   19.216762236   196.6961   1   9   0.0071   0.0050   0.0174  -0.0019  -0.0021   0.0015   0.00  229.0
2022/04/25 06:06:03.000   47.447037237   19.216762256   196.6988   1   9   0.0071   0.0050   0.0174  -0.0016  -0.0020   0.0018   0.00  228.4
2022/04/25 06:06:04.000   47.447037244   19.216762245   196.6973   1   9   0.0072   0.0052   0.0174  -0.0026  -0.0022   0.0018   0.00  227.9
2022/04/25 06:06:05.000   47.447037215   19.216762240   196.6977   1   9   0.0071   0.0053   0.0174  -0.0020  -0.0021   0.0015   0.00  227.1
2022/04/25 06:06:06.000   47.447037224   19.216762259   196.6980   1   9   0.0072   0.0048   0.0174  -0.0020  -0.0019   0.0018   0.00  226.4
2022/04/25 06:06:07.000   47.447037218   19.216762240   196.7001   1   9   0.0072   0.0054   0.0174  -0.0019  -0.0020   0.0018   0.00  225.8
2022/04/25 06:06:08.000   47.447037216   19.216762249   196.6957   1   9   0.0070   0.0048   0.0175  -0.0016  -0.0019   0.0013   0.00  224.7
2022/04/25 06:06:09.000   47.447037229   19.216762241   196.6975   1   9   0.0071   0.0053   0.0175  -0.0015  -0.0019   0.0018   0.00  224.5
2022/04/25 06:06:10.000   47.447037227   19.216762255   196.6920   1   9   0.0070   0.0050   0.0174  -0.0017  -0.0020   0.0017   0.00  224.3
2022/04/25 06:06:11.000   47.447037226   19.216762244   196.6969   1   9   0.0070   0.0048   0.0175  -0.0004  -0.0018   0.0017   0.00  224.0
2022/04/25 06:06:12.000   47.447037242   19.216762239   196.6902   1   9   0.0070   0.0052   0.0174  -0.0022  -0.0021   0.0011   0.00  223.9
2022/04/25 06:06:13.000   47.447037235   19.216762240   196.6961   1   9   0.0071   0.0048   0.0174  -0.0018  -0.0019   0.0016   0.00  223.9
2022/04/25 06:06:14.000   47.447037228   19.216762261   196.6976   1   9   0.0071   0.0053   0.0174  -0.0024  -0.0021   0.0017   0.00  223.1
2022/04/25 06:06:15.000   47.447037234   19.216762250   196.6935   1   9   0.0072   0.0051   0.0174  -0.0017  -0.0019   0.0017   0.00  222.7
2022/04/25 06:06:16.000   47.447037245   19.216762256   196.6980   1   9   0.0073   0.0051   0.0174  -0.0020  -0.0020   0.0017   0.00  222.1
2022/04/25 06:06:17.000   47.447037225   19.216762239   196.6954   1   9   0.0072   0.0053   0.0174  -0.0023  -0.0020   0.0016   0.00  221.3
2022/04/25 06:06:18.000   47.447037238   19.216762247   196.6901   1   9   0.0072   0.0053   0.0174  -0.0024  -0.0021   0.0016   0.00  219.5
2022/04/25 06:06:19.000   47.447037248   19.216762254   196.6962   1   9   0.0072   0.0051   0.0174  -0.0020  -0.0019   0.0016   0.00  218.1
2022/04/25 06:06:20.000   47.447037211   19.216762252   196.6971   1   9   0.0071   0.0051   0.0174  -0.0020  -0.0020   0.0015   0.00  217.2
2022/04/25 06:06:21.000   47.447037243   19.216762234   196.6981   1   9   0.0071   0.0050   0.0174  -0.0022  -0.0020   0.0012   0.00  217.2
2022/04/25 06:06:22.000   47.447037232   19.216762252   196.6969   1   9   0.0071   0.0051   0.0174  -0.0018  -0.0021   0.0016   0.00  216.0
2022/04/25 06:06:23.000   47.447037222   19.216762253   196.6929   1   9   0.0071   0.0051   0.0174  -0.0021  -0.0020   0.0015   0.00  215.0
2022/04/25 06:06:24.000   47.447037240   19.216762250   196.6949   1   9   0.0072   0.0050   0.0174  -0.0021  -0.0020   0.0016   0.00  213.7
2022/04/25 06:06:25.000   47.447037217   19.216762252   196.7009   1   9   0.0071   0.0052   0.0174  -0.0020  -0.0020   0.0016   0.00  212.8
2022/04/25 06:06:26.000   47.447037228   19.216762256   196.7002   1   9   0.0072   0.0052   0.0174  -0.0019  -0.0021   0.0014   0.00  211.7
2022/04/25 06:06:27.000   47.447037219   19.216762266   196.6986   1   9   0.0071   0.0050   0.0174  -0.0014  -0.0017   0.0014   0.00  210.1
2022/04/25 06:06:28.000   47.447037205   19.216762273   196.6988   1   9   0.0072   0.0052   0.0174  -0.0022  -0.0020   0.0014   0.00  209.1
2022/04/25 06:06:29.000   47.447037224   19.216762247   196.6980   1   9   0.0072   0.0049   0.0174  -0.0021  -0.0020   0.0012   0.00  208.2
2022/04/25 06:06:30.000   47.447037215   19.216762239   196.6958   1   9   0.0072   0.0050   0.0174  -0.0016  -0.0017   0.0016   0.00  207.2
2022/04/25 06:06:31.000   47.447037207   19.216762265   196.6980   1   9   0.0072   0.0049   0.0174  -0.0021  -0.0020   0.0015   0.00  206.2
2022/04/25 06:06:32.000   47.447037225   19.216762243   196.6951   1   9   0.0071   0.0051   0.0174  -0.0017  -0.0019   0.0015   0.00  205.8
2022/04/25 06:06:33.000   47.447037214   19.216762231   196.6940   1   9   0.0072   0.0051   0.0174  -0.0020  -0.0019   0.0014   0.00  204.5
2022/04/25 06:06:34.000   47.447037222   19.216762236   196.6981   1   9   0.0070   0.0049   0.0174  -0.0019  -0.0019   0.0012   0.00  203.2
2022/04/25 06:06:35.000   47.447037224   19.216762255   196.6975   1   9   0.0071   0.0053   0.0174  -0.0019  -0.0020   0.0015   0.00  202.7
2022/04/25 06:06:37.000   47.447037223   19.216762248   196.6976   1   9   0.0071   0.0054   0.0174  -0.0021  -0.0019   0.0010   0.00  202.1
2022/04/25 06:06:38.000   47.447037208   19.216762258   196.6964   1   9   0.0072   0.0053   0.0174  -0.0023  -0.0022   0.0014   0.00  200.8
2022/04/25 06:06:39.000   47.447037213   19.216762237   196.6969   1   9   0.0071   0.0051   0.0174  -0.0020  -0.0019   0.0014   0.00  199.9
2022/04/25 06:06:40.000   47.447037223   19.216762250   196.6952   1   9   0.0071   0.0052   0.0174  -0.0022  -0.0019   0.0012   0.00  199.1
2022/04/25 06:06:41.000   47.447037218   19.216762258   196.6898   1   9   0.0072   0.0051   0.0174  -0.0020  -0.0018   0.0015   0.00  198.5
2022/04/25 06:06:42.000   47.447037248   19.216762233   196.6903   1   9   0.0072   0.0053   0.0174  -0.0024  -0.0020   0.0014   0.00  332.7
2022/04/25 06:06:43.000   47.447037240   19.216762242   196.6890   1   9   0.0072   0.0051   0.0174  -0.0021  -0.0020   0.0012   0.00  330.6
2022/04/25 06:06:44.000   47.447037235   19.216762229   196.6860   1   9   0.0072   0.0050   0.0174  -0.0019  -0.0018   0.0010   0.00  329.0
2022/04/25 06:06:45.000   47.447037243   19.216762231   196.6858   1   9   0.0071   0.0053   0.0174  -0.0024  -0.0022   0.0007   0.00  326.6
2022/04/25 06:06:46.000   47.447037236   19.216762249   196.6930   1   9   0.0071   0.0050   0.0174  -0.0022  -0.0020   0.0010   0.00  324.5
2022/04/25 06:06:47.000   47.447037249   19.216762232   196.6892   1   9   0.0073   0.0052   0.0174  -0.0020  -0.0019   0.0014   0.00  322.0
2022/04/25 06:06:48.000   47.447037222   19.216762237   196.6926   1   9   0.0071   0.0051   0.0174  -0.0019  -0.0019  -0.0001   0.00  319.9
2022/04/25 06:06:49.000   47.447037226   19.216762230   196.6938   1   9   0.0072   0.0054   0.0174  -0.0023  -0.0020   0.0010   0.00  318.0
2022/04/25 06:06:50.000   47.447037231   19.216762224   196.6888   1   9   0.0071   0.0053   0.0174  -0.0021  -0.0021   0.0009   0.00  314.8
2022/04/25 06:06:51.000   47.447037240   19.216762233   196.6897   1   9   0.0072   0.0050   0.0174  -0.0021  -0.0020   0.0009   0.00  311.5
2022/04/25 06:06:52.000   47.447037237   19.216762242   196.6864   1   9   0.0071   0.0051   0.0174  -0.0017  -0.0020   0.0010   0.00  308.9
2022/04/25 06:06:53.000   47.447037228   19.216762251   196.6891   1   9   0.0071   0.0053   0.0174  -0.0021  -0.0019   0.0008   0.00  306.3
2022/04/25 06:06:54.000   47.447037235   19.216762243   196.6906   1   9   0.0071   0.0050   0.0174  -0.0014  -0.0017   0.0011   0.00  305.4
2022/04/25 06:06:55.000   47.447037222   19.216762260   196.6860   1   9   0.0071   0.0050   0.0174  -0.0017  -0.0019   0.0011   0.00  303.0
2022/04/25 06:06:56.000   47.447037224   19.216762261   196.6891   1   9   0.0071   0.0051   0.0174  -0.0017  -0.0019   0.0013   0.00  301.0
2022/04/25 06:06:57.000   47.447037220   19.216762240   196.6898   1   9   0.0071   0.0052   0.0174  -0.0022  -0.0019   0.0005   0.00  299.0
2022/04/25 06:06:58.000   47.447037231   19.216762260   196.6913   1   9   0.0071   0.0053   0.0174  -0.0023  -0.0021   0.0003   0.00  297.7
2022/04/25 06:06:59.000   47.447037236   19.216762234   196.6916   1   9   0.0072   0.0056   0.0174  -0.0023  -0.0021   0.0011   0.00  295.4
2022/04/25 06:07:00.000   47.447037242   19.216762233   196.6870   1   9   0.0072   0.0051   0.0174  -0.0016  -0.0019   0.0012   0.00  293.6
2022/04/25 06:07:01.000   47.447037246   19.216762232   196.6876   1   9   0.0073   0.0050   0.0174  -0.0019  -0.0019   0.0014   0.00  292.5
2022/04/25 06:07:02.000   47.447037216   19.216762226   196.6848   1   9   0.0071   0.0051   0.0176  -0.0017  -0.0020   0.0013   1.00  291.0
2022/04/25 06:07:03.000   47.447037234   19.216762230   196.6881   1   9   0.0073   0.0049   0.0174  -0.0020  -0.0017   0.0012   0.00  288.7
2022/04/25 06:07:05.000   47.447037235   19.216762227   196.6836   1   9   0.0071   0.0049   0.0174  -0.0018  -0.0017   0.0009   0.00  286.6
2022/04/25 06:07:06.000   47.447037240   19.216762234   196.6898   1   9   0.0073   0.0052   0.0174  -0.0018  -0.0019   0.0009   0.00  286.0
2022/04/25 06:07:07.000   47.447037249   19.216762232   196.6926   1   9   0.0071   0.0052   0.0174  -0.0021  -0.0019  -0.0005   0.00  285.5
2022/04/25 06:07:08.000   47.447037239   19.216762234   196.6861   1   9   0.0071   0.0052   0.0174  -0.0022  -0.0019  -0.0009   0.00  283.2
2022/04/25 06:07:09.000   47.447037248   19.216762236   196.6925   1   9   0.0071   0.0049   0.0174  -0.0022  -0.0018   0.0006   0.00  281.4
2022/04/25 06:07:10.000   47.447037224   19.216762242   196.6909   1   9   0.0072   0.0051   0.0174  -0.0026  -0.0020   0.0005   0.00  279.1
2022/04/25 06:07:11.000   47.447037230   19.216762259   196.6874   1   9   0.0071   0.0049   0.0174  -0.0019  -0.0018  -0.0005   0.00  277.2
2022/04/25 06:07:12.000   47.447037231   19.216762244   196.6890   1   9   0.0071   0.0053   0.0174  -0.0021  -0.0020  -0.0002   0.00  275.4
2022/04/25 06:07:13.000   47.447037239   19.216762238   196.6858   1   9   0.0073   0.0054   0.0174  -0.0021  -0.0019   0.0013   0.00  272.7
2022/04/25 06:07:14.000   47.447037261   19.216762231   196.6904   1   9   0.0073   0.0055   0.0174  -0.0024  -0.0021   0.0009   0.00  270.2
2022/04/25 06:07:15.000   47.447037224   19.216762238   196.6885   1   9   0.0071   0.0051   0.0174  -0.0020  -0.0019  -0.0005   0.00  269.5
2022/04/25 06:07:16.000   47.447037229   19.216762220   196.6935   1   9   0.0073   0.0050   0.0174  -0.0021  -0.0018   0.0009   0.00  268.0
2022/04/25 06:07:17.000   47.447037232   19.216762234   196.6889   1   9   0.0071   0.0052   0.0174  -0.0014  -0.0019   0.0006   0.00  265.7
2022/04/25 06:07:18.000   47.447037216   19.216762221   196.6875   1   9   0.0072   0.0051   0.0174  -0.0018  -0.0017  -0.0000   0.00  264.0
2022/04/25 06:07:19.000   47.447037236   19.216762220   196.6876   1   9   0.0073   0.0051   0.0174  -0.0021  -0.0019   0.0007   0.00  262.6
2022/04/25 06:07:20.000   47.447037232   19.216762235   196.6917   1   9   0.0071   0.0051   0.0174  -0.0022  -0.0020  -0.0010   0.00  261.1
2022/04/25 06:07:21.000   47.447037242   19.216762218   196.6866   1   9   0.0072   0.0048   0.0174  -0.0019  -0.0018  -0.0008   0.00  259.9
2022/04/25 06:07:22.000   47.447037238   19.216762239   196.6884   1   9   0.0070   0.0052   0.0173  -0.0023  -0.0020  -0.0011   0.00  257.8
2022/04/25 06:07:23.000   47.447037237   19.216762245   196.6867   1   9   0.0071   0.0052   0.0174  -0.0017  -0.0017  -0.0008   0.00  256.2
2022/04/25 06:07:24.000   47.447037247   19.216762242   196.6866   1   9   0.0072   0.0050   0.0174  -0.0018  -0.0017   0.0004   0.00  254.1
2022/04/25 06:07:25.000   47.447037232   19.216762232   196.6849   1   9   0.0071   0.0052   0.0174  -0.0023  -0.0019  -0.0005   0.00  251.9
2022/04/25 06:07:26.000   47.447037226   19.216762246   196.6862   1   9   0.0072   0.0052   0.0174  -0.0018  -0.0018   0.0002   0.00  249.8
2022/04/25 06:07:27.000   47.447037237   19.216762238   196.6900   1   9   0.0071   0.0054   0.0174  -0.0018  -0.0020  -0.0008   0.00  248.2
2022/04/25 06:07:28.000   47.447037233   19.216762235   196.6893   1   9   0.0071   0.0052   0.0174  -0.0019  -0.0018  -0.0004   0.00  246.0
2022/04/25 06:07:29.000   47.447037221   19.216762248   196.6864   1   9   0.0072   0.0048   0.0174  -0.0020  -0.0016   0.0004   0.00  243.9
2022/04/25 06:07:30.000   47.447037222   19.216762240   196.6843   1   9   0.0071   0.0051   0.0174  -0.0022  -0.0020  -0.0010   0.00  241.5
2022/04/25 06:07:31.000   47.447037226   19.216762250   196.6861   1   9   0.0070   0.0050   0.0174  -0.0020  -0.0018  -0.0007   0.00  240.3
2022/04/25 06:07:32.000   47.447037211   19.216762234   196.6884   1   9   0.0072   0.0051   0.0176  -0.0020  -0.0019   0.0007   1.00  239.3
2022/04/25 06:07:36.000   47.447037241   19.216762239   196.6893   1   9   0.0073   0.0051   0.0174  -0.0020  -0.0019  -0.0004   0.00  238.0
2022/04/25 06:07:37.000   47.447037228   19.216762243   196.6893   1   9   0.0073   0.0050   0.0176  -0.0019  -0.0020  -0.0002   1.00  237.4
2022/04/25 06:07:38.000   47.447037216   19.216762240   196.6870   1   9   0.0076   0.0053   0.0182  -0.0022  -0.0024   0.0023   2.00  237.7
2022/04/25 06:07:42.000   47.447037238   19.216762243   196.6857   1   9   0.0071   0.0051   0.0173  -0.0021  -0.0018  -0.0010   0.00  235.9
2022/04/25 06:07:44.000   47.447037247   19.216762247   196.6890   1   9   0.0071   0.0049   0.0173  -0.0021  -0.0018  -0.0013   0.00  234.6
2022/04/25 06:07:45.000   47.447037238   19.216762248   196.6862   1   9   0.0073   0.0052   0.0175  -0.0020  -0.0019   0.0011   1.00  233.2
2022/04/25 06:07:47.000   47.447037236   19.216762252   196.6830   1   9   0.0072   0.0051   0.0173  -0.0022  -0.0018  -0.0008   0.00  231.6
2022/04/25 06:07:48.000   47.447037224   19.216762238   196.6881   1   9   0.0071   0.0051   0.0173  -0.0024  -0.0018  -0.0013   0.00  229.2
2022/04/25 06:07:49.000   47.447037235   19.216762254   196.6912   1   9   0.0070   0.0051   0.0173  -0.0022  -0.0019  -0.0016   0.00  227.4
2022/04/25 06:07:50.000   47.447037225   19.216762254   196.6907   1   9   0.0071   0.0054   0.0173  -0.0022  -0.0019  -0.0010   0.00  225.1
2022/04/25 06:07:51.000   47.447037208   19.216762271   196.6892   1   9   0.0072   0.0053   0.0173  -0.0020  -0.0018  -0.0011   0.00  223.0
