% program   : RTKLIB ver.demo5 b33c
% inp file  : /home/hegyi/Paripa/Downloaded_zips/PildoBox20522115g.obs
% inp file  : /home/hegyi/Paripa/Reference_for_Kinematic/PildoBox205202211506.obs
% inp file  : /home/hegyi/Paripa/Downloaded_zips/PildoBox20522115g.nav
% obs start : 2022/04/25 06:00:02.0 GPST (week2207 108002.0s)
% obs end   : 2022/04/25 07:00:01.0 GPST (week2207 111601.0s)
% pos mode  : kinematic
% freqs     : L1+L2/E5b
% solution  : forward
% elev mask : 10.0 deg
% dynamics  : off
% tidecorr  : off
% ionos opt : broadcast
% tropo opt : saastamoinen
% ephemeris : broadcast
% navi sys  : gps galileo
% amb res   : fix and hold
% val thres : 3.0
% antenna1  :                       ( 0.0000  0.0000  0.0000)
% antenna2  :                       ( 0.0000  0.0000  0.0000)
% ref pos   : 47.479024318  19.057702703  178.8463
%
% (lat/lon/height=WGS84/ellipsoidal,Q=1:fix,2:float,3:sbas,4:dgps,5:single,6:ppp,ns=# of satellites)
%  GPST                  latitude(deg) longitude(deg)  height(m)   Q  ns   sdn(m)   sde(m)   sdu(m)  sdne(m)  sdeu(m)  sdun(m) age(s)  ratio
2022/04/25 06:00:02.000   47.447038838   19.216763474   196.7843   2  15   1.5703   1.0856   3.4205  -0.5637   0.2397   1.1557   0.00    0.0
2022/04/25 06:00:03.000   47.447038263   19.216763367   196.5862   2  15   1.1561   0.8106   2.5646  -0.4195   0.1934   0.7938   0.00    0.0
2022/04/25 06:00:04.000   47.447037849   19.216763193   196.3991   2  15   0.9567   0.6749   2.1358  -0.3486   0.1672   0.6333   0.00    0.0
2022/04/25 06:00:05.000   47.447037931   19.216763007   196.3830   2  15   0.8333   0.5904   1.8650  -0.3045   0.1507   0.5366   0.00    0.0
2022/04/25 06:00:06.000   47.447037823   19.216762963   196.3548   2  15   0.7470   0.5312   1.6728  -0.2735   0.1395   0.4689   0.00    0.0
2022/04/25 06:00:07.000   47.447038142   19.216762967   196.3699   2  15   0.6821   0.4869   1.5266  -0.2501   0.1314   0.4170   0.00    0.0
2022/04/25 06:00:08.000   47.447038572   19.216762760   196.4084   2  15   0.6309   0.4520   1.4098  -0.2317   0.1256   0.3748   0.00    0.0
2022/04/25 06:00:09.000   47.447038634   19.216762870   196.4396   2  15   0.5890   0.4237   1.3133  -0.2166   0.1211   0.3389   0.00    0.0
2022/04/25 06:00:10.000   47.447038942   19.216762922   196.4975   2  15   0.5538   0.4000   1.2315  -0.2039   0.1177   0.3074   0.00    0.0
2022/04/25 06:00:11.000   47.447039043   19.216762858   196.5634   2  15   0.5236   0.3799   1.1608  -0.1931   0.1150   0.2790   0.00    0.0
2022/04/25 06:00:12.000   47.447039101   19.216762955   196.5876   2  15   0.4973   0.3625   1.0986  -0.1836   0.1129   0.2528   0.00    0.0
2022/04/25 06:00:13.000   47.447039208   19.216762841   196.6200   2  15   0.4741   0.3473   1.0432  -0.1753   0.1112   0.2283   0.00    0.0
2022/04/25 06:00:14.000   47.447039298   19.216762702   196.6307   2  15   0.4534   0.3338   0.9934  -0.1679   0.1097   0.2049   0.00    0.0
2022/04/25 06:00:15.000   47.447039449   19.216762539   196.6674   2  15   0.4348   0.3217   0.9483  -0.1612   0.1085   0.1822   0.00    0.0
2022/04/25 06:00:16.000   47.447039467   19.216762391   196.6717   2  15   0.4179   0.3108   0.9070  -0.1552   0.1075   0.1599   0.00    0.0
2022/04/25 06:00:17.000   47.447039251   19.216762317   196.5820   2  15   0.4026   0.3010   0.8696  -0.1497   0.1064   0.1381   1.00    0.0
2022/04/25 06:00:18.000   47.447039165   19.216762209   196.5851   2   6   0.3976   0.2980   0.8584  -0.1500   0.1098   0.1337   0.00    0.0
2022/04/25 06:00:20.000   47.447039125   19.216762158   196.5893   2   6   0.3922   0.2951   0.8461  -0.1504   0.1120   0.1270   0.00    0.0
2022/04/25 06:00:23.000   47.447039059   19.216762077   196.5992   2   6   0.3862   0.2923   0.8331  -0.1508   0.1143   0.1154   0.00    0.0
2022/04/25 06:00:24.000   47.447039014   19.216762024   196.6213   2   6   0.3806   0.2897   0.8206  -0.1509   0.1160   0.1042   1.00    0.0
2022/04/25 06:00:25.000   47.447038895   19.216761954   196.6257   2   6   0.3753   0.2870   0.8088  -0.1510   0.1175   0.0936   2.00    0.0
2022/04/25 06:00:26.000   47.447038720   19.216762069   196.5652   2  15   0.3581   0.2788   0.7534  -0.1443   0.1186  -0.0733   0.00    0.0
2022/04/25 06:00:27.000   47.447038659   19.216762071   196.5745   2   6   0.3534   0.2763   0.7451  -0.1441   0.1212  -0.0837   0.00    0.0
2022/04/25 06:00:28.000   47.447038550   19.216762076   196.5735   2   6   0.3487   0.2740   0.7357  -0.1442   0.1220  -0.0913   1.00    0.0
2022/04/25 06:00:29.000   47.447038418   19.216762085   196.5664   2   6   0.3444   0.2718   0.7269  -0.1442   0.1229  -0.0972   2.00    0.0
2022/04/25 06:00:30.000   47.447038461   19.216762152   196.5507   2  15   0.3298   0.2645   0.6779  -0.1379   0.1226  -0.1399   0.00    0.0
2022/04/25 06:00:31.000   47.447038547   19.216762151   196.5368   2  15   0.3176   0.2576   0.6401  -0.1323   0.1226  -0.1614   0.00    0.0
2022/04/25 06:00:32.000   47.447038621   19.216762084   196.5522   2  15   0.3068   0.2513   0.6088  -0.1273   0.1217  -0.1740   0.00    0.0
2022/04/25 06:00:33.000   47.447038504   19.216762106   196.5317   2  15   0.2973   0.2454   0.5821  -0.1229   0.1203  -0.1817   0.00    0.0
2022/04/25 06:00:34.000   47.447038566   19.216762034   196.5177   2  15   0.2887   0.2399   0.5589  -0.1190   0.1186  -0.1866   0.00    0.0
2022/04/25 06:00:37.000   47.447038571   19.216762123   196.5037   2  15   0.2801   0.2346   0.5356  -0.1152   0.1172  -0.1915   0.00    0.0
2022/04/25 06:00:38.000   47.447038566   19.216762190   196.4794   2  15   0.2725   0.2297   0.5157  -0.1118   0.1154  -0.1940   1.00    0.0
2022/04/25 06:00:39.000   47.447038585   19.216762222   196.4492   2  15   0.2658   0.2251   0.4990  -0.1087   0.1136  -0.1947   2.00    0.0
2022/04/25 06:00:40.000   47.447038573   19.216762127   196.4491   2   6   0.2634   0.2237   0.4973  -0.1090   0.1147  -0.1947   0.00    0.0
2022/04/25 06:00:42.000   47.447038568   19.216762143   196.4638   2  15   0.2563   0.2194   0.4778  -0.1060   0.1120  -0.1958   0.00    0.0
2022/04/25 06:00:43.000   47.447038538   19.216762137   196.4513   2   6   0.2541   0.2181   0.4764  -0.1063   0.1131  -0.1959   0.00    0.0
2022/04/25 06:00:45.000   47.447038466   19.216762215   196.4589   2  15   0.2473   0.2140   0.4574  -0.1033   0.1105  -0.1965   0.00    0.0
2022/04/25 06:00:46.000   47.447037258   19.216762340   196.6881   1  15   0.0058   0.0041   0.0134  -0.0011   0.0011   0.0036   1.00   11.0
2022/04/25 06:00:47.000   47.447038406   19.216762264   196.4527   2   6   0.2394   0.2088   0.4415  -0.1008   0.1097  -0.1965   0.00    1.0
2022/04/25 06:00:49.000   47.447037242   19.216762348   196.6845   1  15   0.0061   0.0038   0.0132  -0.0027   0.0009   0.0034   0.00   11.2
2022/04/25 06:00:50.000   47.447037235   19.216762341   196.6854   1  15   0.0056   0.0040   0.0131  -0.0022   0.0009   0.0034   0.00   11.3
2022/04/25 06:00:51.000   47.447037257   19.216762334   196.6883   1  15   0.0060   0.0041   0.0131  -0.0017   0.0014   0.0035   0.00   11.5
2022/04/25 06:00:52.000   47.447037248   19.216762325   196.6860   1  15   0.0055   0.0044   0.0131  -0.0018   0.0012   0.0032   0.00   11.5
2022/04/25 06:00:53.000   47.447037250   19.216762321   196.6859   1  15   0.0055   0.0043   0.0132  -0.0024   0.0006   0.0032   0.00   11.5
2022/04/25 06:00:54.000   47.447037258   19.216762338   196.6911   1  15   0.0054   0.0033   0.0131  -0.0017   0.0013   0.0034   0.00   11.4
2022/04/25 06:00:55.000   47.447037252   19.216762340   196.6829   1  15   0.0059   0.0030   0.0131  -0.0022   0.0015   0.0035   0.00   11.4
2022/04/25 06:00:56.000   47.447037251   19.216762320   196.6848   1  15   0.0056   0.0044   0.0132  -0.0021   0.0014   0.0033   0.00   11.6
2022/04/25 06:00:57.000   47.447037249   19.216762340   196.6858   1  15   0.0058   0.0036   0.0131  -0.0023   0.0008   0.0035   0.00   11.5
2022/04/25 06:00:58.000   47.447037248   19.216762336   196.6865   1  15   0.0057   0.0046   0.0131  -0.0025   0.0002   0.0033   0.00   11.6
2022/04/25 06:00:59.000   47.447037245   19.216762336   196.6886   1  15   0.0057   0.0040   0.0131  -0.0021   0.0010   0.0034   0.00   11.9
2022/04/25 06:01:00.000   47.447037245   19.216762322   196.6879   1  15   0.0059   0.0038   0.0131  -0.0024   0.0010   0.0033   0.00   11.9
2022/04/25 06:01:01.000   47.447037245   19.216762347   196.6892   1  15   0.0059   0.0038   0.0131  -0.0021   0.0012   0.0036   0.00   12.0
2022/04/25 06:01:02.000   47.447037247   19.216762333   196.6883   1  15   0.0057   0.0038   0.0132  -0.0018   0.0010   0.0033   0.00   12.0
2022/04/25 06:01:03.000   47.447037245   19.216762324   196.6891   1  15   0.0055   0.0042   0.0132  -0.0023   0.0008   0.0033   0.00   12.1
2022/04/25 06:01:04.000   47.447037251   19.216762329   196.6875   1  15   0.0056   0.0039   0.0131  -0.0015   0.0014   0.0032   0.00   12.2
2022/04/25 06:01:05.000   47.447037251   19.216762331   196.6885   1  15   0.0056   0.0044   0.0131  -0.0026   0.0005   0.0029   0.00   12.2
2022/04/25 06:01:06.000   47.447037252   19.216762322   196.6897   1  15   0.0054   0.0040   0.0131  -0.0024   0.0012   0.0034   0.00   12.3
2022/04/25 06:01:07.000   47.447037234   19.216762329   196.6903   1  15   0.0055   0.0045   0.0131  -0.0017   0.0014   0.0036   0.00   12.4
2022/04/25 06:01:08.000   47.447037257   19.216762341   196.6839   1  15   0.0060   0.0039   0.0131  -0.0025   0.0012   0.0034   0.00   12.5
2022/04/25 06:01:09.000   47.447037255   19.216762317   196.6905   1  15   0.0055   0.0043   0.0131  -0.0017   0.0009   0.0033   0.00   21.2
2022/04/25 06:01:10.000   47.447037269   19.216762324   196.6894   1  15   0.0057   0.0045   0.0131  -0.0018   0.0010   0.0036   0.00   25.0
2022/04/25 06:01:11.000   47.447037249   19.216762328   196.6907   1  15   0.0057   0.0047   0.0131  -0.0026   0.0010   0.0032   0.00   27.6
2022/04/25 06:01:12.000   47.447037254   19.216762327   196.6843   1  15   0.0057   0.0039   0.0131  -0.0023   0.0011   0.0032   0.00   29.2
2022/04/25 06:01:13.000   47.447037224   19.216762311   196.6892   1  15   0.0058   0.0034   0.0131  -0.0022   0.0013   0.0033   0.00   30.8
2022/04/25 06:01:14.000   47.447037244   19.216762322   196.6865   1  15   0.0057   0.0038   0.0131  -0.0019   0.0010   0.0033   0.00   32.4
2022/04/25 06:01:15.000   47.447037258   19.216762313   196.6862   1  15   0.0057   0.0036   0.0131  -0.0025   0.0012   0.0033   0.00   33.7
2022/04/25 06:01:16.000   47.447037250   19.216762312   196.6866   1  15   0.0058   0.0037   0.0131  -0.0015   0.0017   0.0034   0.00   35.1
2022/04/25 06:01:17.000   47.447037251   19.216762304   196.6882   1  15   0.0058   0.0035   0.0131  -0.0027   0.0016   0.0034   0.00   36.6
2022/04/25 06:01:18.000   47.447037246   19.216762305   196.6864   1  15   0.0057   0.0046   0.0131  -0.0010   0.0015   0.0035   0.00   37.9
2022/04/25 06:01:19.000   47.447037234   19.216762303   196.6870   1  15   0.0057   0.0040   0.0131  -0.0025   0.0014   0.0034   0.00   39.4
2022/04/25 06:01:20.000   47.447037255   19.216762308   196.6872   1  15   0.0058   0.0039   0.0132  -0.0011   0.0016   0.0036   0.00   41.0
2022/04/25 06:01:21.000   47.447037237   19.216762327   196.6843   1  15   0.0055   0.0041   0.0131  -0.0027   0.0012   0.0034   0.00   42.7
2022/04/25 06:01:22.000   47.447037235   19.216762318   196.6882   1  15   0.0054   0.0036   0.0131  -0.0012   0.0011   0.0031   0.00   44.0
2022/04/25 06:01:23.000   47.447037256   19.216762304   196.6864   1  15   0.0057   0.0045   0.0131  -0.0022  -0.0004   0.0034   0.00   45.3
2022/04/25 06:01:24.000   47.447037247   19.216762284   196.6910   1  15   0.0058   0.0045   0.0132  -0.0007   0.0019   0.0033   0.00   46.7
2022/04/25 06:01:25.000   47.447037233   19.216762301   196.6863   1  15   0.0054   0.0047   0.0130  -0.0022   0.0011   0.0034   0.00   48.1
2022/04/25 06:01:26.000   47.447037249   19.216762309   196.6873   1  15   0.0057   0.0036   0.0130  -0.0021   0.0014   0.0033   0.00   49.4
2022/04/25 06:01:27.000   47.447037249   19.216762319   196.6846   1  15   0.0055   0.0043   0.0131  -0.0011   0.0016   0.0033   0.00   50.8
2022/04/25 06:01:28.000   47.447037220   19.216762329   196.6911   1   6   0.0099   0.0075   0.0197  -0.0054   0.0043   0.0056   0.00    7.6
2022/04/25 06:01:29.000   47.447037237   19.216762321   196.6857   1   6   0.0099   0.0074   0.0197  -0.0054   0.0043   0.0057   0.00    7.6
2022/04/25 06:01:30.000   47.447037234   19.216762318   196.6865   1   6   0.0102   0.0076   0.0200  -0.0056   0.0046   0.0058   1.00    7.5
2022/04/25 06:01:31.000   47.447037252   19.216762330   196.6890   1   6   0.0099   0.0074   0.0197  -0.0054   0.0042   0.0056   0.00    7.5
2022/04/25 06:01:33.000   47.447037240   19.216762305   196.6845   1  15   0.0058   0.0039   0.0131  -0.0025   0.0011   0.0034   0.00   51.3
2022/04/25 06:01:34.000   47.447037253   19.216762301   196.6869   1  15   0.0055   0.0049   0.0131  -0.0026   0.0013   0.0033   0.00   52.6
2022/04/25 06:01:35.000   47.447037258   19.216762311   196.6863   1  15   0.0053   0.0046   0.0131  -0.0016   0.0017   0.0034   0.00   53.6
2022/04/25 06:01:36.000   47.447037259   19.216762311   196.6905   1  15   0.0058   0.0036   0.0131  -0.0021   0.0011   0.0032   0.00   54.8
2022/04/25 06:01:37.000   47.447037243   19.216762305   196.6960   1  15   0.0056   0.0044   0.0131  -0.0016   0.0014   0.0035   0.00   55.9
2022/04/25 06:01:38.000   47.447037253   19.216762305   196.6935   1  15   0.0058   0.0038   0.0131  -0.0026   0.0013   0.0033   0.00   57.2
2022/04/25 06:01:39.000   47.447037248   19.216762304   196.6895   1  15   0.0060   0.0041   0.0130  -0.0024   0.0006   0.0035   0.00   58.7
2022/04/25 06:01:40.000   47.447037242   19.216762307   196.6902   1  15   0.0058   0.0038   0.0131  -0.0022   0.0013   0.0032   0.00   59.6
2022/04/25 06:01:41.000   47.447037249   19.216762297   196.6895   1  15   0.0061   0.0043   0.0131  -0.0031   0.0006   0.0033   0.00   60.7
2022/04/25 06:01:42.000   47.447037240   19.216762299   196.6890   1  15   0.0057   0.0039   0.0131  -0.0022  -0.0006   0.0033   0.00   61.9
2022/04/25 06:01:43.000   47.447037249   19.216762310   196.6907   1  15   0.0057   0.0045   0.0130  -0.0024   0.0013   0.0035   0.00   62.8
2022/04/25 06:01:44.000   47.447037250   19.216762305   196.6885   1  15   0.0058   0.0036   0.0131  -0.0024   0.0013   0.0034   0.00   64.0
2022/04/25 06:01:45.000   47.447037245   19.216762301   196.6883   1  15   0.0058   0.0038   0.0131  -0.0024   0.0008   0.0034   0.00   65.3
2022/04/25 06:01:46.000   47.447037244   19.216762316   196.6858   1  15   0.0058   0.0045   0.0131  -0.0020   0.0010   0.0034   0.00   66.6
2022/04/25 06:01:47.000   47.447037247   19.216762298   196.6908   1  15   0.0056   0.0044   0.0131  -0.0022   0.0010   0.0034   0.00   67.9
2022/04/25 06:01:48.000   47.447037248   19.216762294   196.6868   1  15   0.0059   0.0044   0.0131  -0.0025   0.0009   0.0033   0.00   68.9
2022/04/25 06:01:49.000   47.447037253   19.216762295   196.6884   1  15   0.0055   0.0044   0.0131  -0.0011   0.0018   0.0034   0.00   69.6
2022/04/25 06:01:50.000   47.447037251   19.216762295   196.6916   1  15   0.0056   0.0041   0.0130  -0.0024   0.0012   0.0031   0.00   70.7
2022/04/25 06:01:51.000   47.447037266   19.216762298   196.6887   1  15   0.0058   0.0037   0.0130  -0.0025   0.0010   0.0034   0.00   72.0
2022/04/25 06:01:52.000   47.447037263   19.216762289   196.6883   1  15   0.0061   0.0042   0.0131  -0.0024   0.0016   0.0036   0.00   73.0
2022/04/25 06:01:53.000   47.447037245   19.216762299   196.6879   1  15   0.0061   0.0037   0.0130  -0.0025   0.0019   0.0035   0.00   73.9
2022/04/25 06:01:54.000   47.447037255   19.216762295   196.6886   1  15   0.0060   0.0041   0.0132  -0.0025   0.0015   0.0036   1.00   74.7
2022/04/25 06:01:55.001   47.447037232   19.216762326   196.6925   1   6   0.0100   0.0073   0.0197  -0.0054   0.0043   0.0055   0.00   12.8
2022/04/25 06:01:56.000   47.447037248   19.216762293   196.6959   1  15   0.0055   0.0040   0.0131  -0.0022   0.0006   0.0031   0.00   75.2
2022/04/25 06:01:57.000   47.447037251   19.216762302   196.6917   1  15   0.0058   0.0039   0.0130  -0.0029   0.0012   0.0033   0.00   76.3
2022/04/25 06:01:58.000   47.447037251   19.216762297   196.6910   1  15   0.0060   0.0032   0.0130  -0.0024   0.0011   0.0033   0.00   77.0
2022/04/25 06:02:00.000   47.447037249   19.216762299   196.6928   1  15   0.0053   0.0047   0.0131  -0.0023   0.0009   0.0031   0.00   78.2
2022/04/25 06:02:01.000   47.447037254   19.216762275   196.6903   1  15   0.0055   0.0043   0.0131  -0.0019   0.0011   0.0032   0.00   79.4
2022/04/25 06:02:02.000   47.447037252   19.216762299   196.6939   1  15   0.0056   0.0043   0.0131  -0.0023   0.0010   0.0033   0.00   79.6
2022/04/25 06:02:03.000   47.447037252   19.216762284   196.6889   1  15   0.0057   0.0043   0.0130  -0.0021   0.0017   0.0033   0.00   80.3
2022/04/25 06:02:04.000   47.447037252   19.216762285   196.6882   1  15   0.0057   0.0040   0.0131  -0.0022   0.0014   0.0032   0.00   80.6
2022/04/25 06:02:05.000   47.447037252   19.216762305   196.6876   1  15   0.0057   0.0040   0.0130  -0.0024   0.0012   0.0033   0.00   81.2
2022/04/25 06:02:06.000   47.447037246   19.216762290   196.6903   1  15   0.0056   0.0040   0.0131  -0.0020   0.0013   0.0032   0.00   81.4
2022/04/25 06:02:07.000   47.447037233   19.216762298   196.6899   1  15   0.0056   0.0036   0.0130  -0.0023   0.0013   0.0031   0.00   81.4
2022/04/25 06:02:08.000   47.447037256   19.216762280   196.6898   1  15   0.0058   0.0040   0.0131  -0.0022   0.0006   0.0033   0.00   81.6
2022/04/25 06:02:09.000   47.447037241   19.216762288   196.6908   1  15   0.0058   0.0036   0.0131  -0.0018   0.0014   0.0034   0.00   81.9
2022/04/25 06:02:10.000   47.447037245   19.216762281   196.6895   1  15   0.0055   0.0043   0.0131  -0.0021   0.0009   0.0031   0.00   82.6
2022/04/25 06:02:11.000   47.447037258   19.216762295   196.6878   1  15   0.0054   0.0039   0.0131  -0.0019   0.0006   0.0028   0.00   83.1
2022/04/25 06:02:12.000   47.447037246   19.216762272   196.6915   1  15   0.0058   0.0038   0.0130  -0.0022   0.0015   0.0031   0.00   83.8
2022/04/25 06:02:13.000   47.447037249   19.216762305   196.6874   1  15   0.0058   0.0042   0.0131  -0.0024   0.0014   0.0034   0.00   84.3
2022/04/25 06:02:14.000   47.447037258   19.216762269   196.6895   1  15   0.0058   0.0038   0.0131  -0.0020   0.0016   0.0033   0.00   85.0
2022/04/25 06:02:15.000   47.447037241   19.216762298   196.6867   1  15   0.0057   0.0047   0.0131  -0.0017   0.0012   0.0030   0.00   85.4
2022/04/25 06:02:16.000   47.447037256   19.216762284   196.6914   1  15   0.0057   0.0043   0.0130  -0.0022   0.0011   0.0034   0.00   86.1
2022/04/25 06:02:17.000   47.447037260   19.216762291   196.6876   1  15   0.0057   0.0040   0.0131  -0.0021   0.0014   0.0035   0.00   87.0
2022/04/25 06:02:18.000   47.447037266   19.216762287   196.6882   1  15   0.0056   0.0040   0.0130  -0.0021   0.0012   0.0033   0.00   87.3
2022/04/25 06:02:19.000   47.447037274   19.216762280   196.6934   1  15   0.0058   0.0041   0.0131  -0.0022   0.0012   0.0032   0.00   88.0
2022/04/25 06:02:20.000   47.447037263   19.216762285   196.6867   1  15   0.0058   0.0037   0.0131  -0.0020   0.0009   0.0031   0.00   88.4
2022/04/25 06:02:21.000   47.447037268   19.216762287   196.6932   1  15   0.0058   0.0038   0.0130  -0.0026   0.0008   0.0032   0.00   88.8
2022/04/25 06:02:22.000   47.447037267   19.216762295   196.6888   1  15   0.0059   0.0042   0.0131  -0.0021   0.0011   0.0034   0.00   89.5
2022/04/25 06:02:23.000   47.447037264   19.216762283   196.6920   1  15   0.0058   0.0033   0.0130  -0.0023   0.0015   0.0033   0.00   89.9
2022/04/25 06:02:24.000   47.447037248   19.216762292   196.6902   1  15   0.0062   0.0043   0.0131  -0.0027   0.0009   0.0032   0.00   90.5
2022/04/25 06:02:25.000   47.447037252   19.216762291   196.6883   1  15   0.0057   0.0041   0.0130  -0.0017   0.0016   0.0033   0.00   90.8
2022/04/25 06:02:26.000   47.447037246   19.216762289   196.6891   1  15   0.0057   0.0046   0.0130  -0.0019   0.0016   0.0033   0.00   91.3
2022/04/25 06:02:27.000   47.447037243   19.216762303   196.6914   1  15   0.0057   0.0036   0.0131  -0.0023   0.0015   0.0032   0.00   91.7
2022/04/25 06:02:28.000   47.447037269   19.216762295   196.6906   1  15   0.0058   0.0040   0.0130  -0.0022   0.0016   0.0035   0.00   91.9
2022/04/25 06:02:29.000   47.447037251   19.216762293   196.6906   1  15   0.0057   0.0041   0.0130  -0.0019   0.0017   0.0036   0.00   92.2
2022/04/25 06:02:30.000   47.447037245   19.216762293   196.6882   1  15   0.0060   0.0043   0.0131  -0.0020   0.0013   0.0034   0.00   92.6
2022/04/25 06:02:31.000   47.447037248   19.216762299   196.6875   1  15   0.0058   0.0042   0.0131  -0.0017   0.0011   0.0033   0.00   93.0
2022/04/25 06:02:32.000   47.447037251   19.216762287   196.6897   1  15   0.0057   0.0035   0.0131  -0.0023   0.0016   0.0032   0.00   93.1
2022/04/25 06:02:33.000   47.447037260   19.216762309   196.6945   1   6   0.0099   0.0074   0.0197  -0.0055   0.0044   0.0054   0.00   20.3
2022/04/25 06:02:34.000   47.447037279   19.216762309   196.6972   1   6   0.0100   0.0074   0.0197  -0.0055   0.0044   0.0054   0.00   20.2
2022/04/25 06:02:37.000   47.447037262   19.216762317   196.6962   1   6   0.0100   0.0075   0.0197  -0.0055   0.0045   0.0055   0.00   20.4
2022/04/25 06:02:38.000   47.447037252   19.216762314   196.6970   1   6   0.0102   0.0076   0.0201  -0.0055   0.0048   0.0056   1.00   20.5
2022/04/25 06:02:39.000   47.447037269   19.216762288   196.6997   1   6   0.0099   0.0075   0.0197  -0.0054   0.0045   0.0055   0.00   20.4
2022/04/25 06:02:40.000   47.447037269   19.216762285   196.7043   1   6   0.0099   0.0075   0.0197  -0.0055   0.0044   0.0054   0.00   20.4
2022/04/25 06:02:42.000   47.447037257   19.216762285   196.6928   1  15   0.0057   0.0040   0.0131  -0.0024   0.0012   0.0030   0.00   93.2
2022/04/25 06:02:44.000   47.447037257   19.216762282   196.6904   1  15   0.0059   0.0044   0.0130  -0.0021   0.0014   0.0034   0.00   93.7
2022/04/25 06:02:45.000   47.447037256   19.216762300   196.7034   1   6   0.0100   0.0074   0.0197  -0.0054   0.0045   0.0054   0.00   20.7
2022/04/25 06:02:46.000   47.447037242   19.216762298   196.6885   1  15   0.0059   0.0036   0.0131  -0.0026   0.0010   0.0030   0.00   94.0
2022/04/25 06:02:47.000   47.447037249   19.216762285   196.6886   1  15   0.0055   0.0042   0.0130  -0.0026   0.0014   0.0029   0.00   94.4
2022/04/25 06:02:48.000   47.447037256   19.216762298   196.6919   1  15   0.0056   0.0040   0.0131  -0.0018   0.0010   0.0029   0.00   95.0
2022/04/25 06:02:49.000   47.447037255   19.216762308   196.7029   1   6   0.0099   0.0075   0.0197  -0.0054   0.0045   0.0054   0.00   21.4
2022/04/25 06:02:50.000   47.447037264   19.216762288   196.6900   1  15   0.0058   0.0041   0.0130  -0.0025   0.0014   0.0032   0.00   95.2
2022/04/25 06:02:51.000   47.447037244   19.216762277   196.6909   1  15   0.0057   0.0034   0.0131  -0.0020   0.0018   0.0033   0.00   95.3
2022/04/25 06:02:52.000   47.447037244   19.216762299   196.6892   1  15   0.0056   0.0046   0.0131  -0.0016   0.0018   0.0032   0.00   95.6
2022/04/25 06:02:53.000   47.447037249   19.216762296   196.6891   1  15   0.0059   0.0042   0.0130  -0.0023   0.0014   0.0034   0.00   95.8
2022/04/25 06:02:54.000   47.447037248   19.216762306   196.6920   1  15   0.0055   0.0040   0.0131  -0.0014   0.0013   0.0030   0.00   96.2
2022/04/25 06:02:55.000   47.447037265   19.216762289   196.6951   1  15   0.0056   0.0035   0.0131  -0.0021   0.0009   0.0030   0.00   96.8
2022/04/25 06:02:56.000   47.447037251   19.216762293   196.6907   1  15   0.0057   0.0046   0.0130  -0.0027   0.0014   0.0031   0.00   97.4
2022/04/25 06:02:57.000   47.447037253   19.216762283   196.6939   1  15   0.0056   0.0048   0.0131  -0.0018   0.0012   0.0031   0.00   97.5
2022/04/25 06:02:58.000   47.447037252   19.216762295   196.6921   1  15   0.0058   0.0041   0.0131  -0.0025   0.0013   0.0031   0.00   97.8
2022/04/25 06:02:59.000   47.447037245   19.216762290   196.6881   1  15   0.0058   0.0043   0.0130  -0.0027   0.0011   0.0030   0.00   98.1
2022/04/25 06:03:00.000   47.447037252   19.216762282   196.6913   1  15   0.0058   0.0033   0.0130  -0.0024   0.0011   0.0029   0.00   98.4
2022/04/25 06:03:01.000   47.447037241   19.216762286   196.6905   1  15   0.0056   0.0041   0.0131  -0.0022   0.0012   0.0031   0.00   98.3
2022/04/25 06:03:02.000   47.447037249   19.216762302   196.6903   1  15   0.0057   0.0041   0.0130  -0.0021   0.0010   0.0031   0.00   98.3
2022/04/25 06:03:03.000   47.447037248   19.216762286   196.6948   1  15   0.0056   0.0045   0.0130  -0.0017   0.0013   0.0030   0.00   98.3
2022/04/25 06:03:04.000   47.447037247   19.216762294   196.6944   1  15   0.0061   0.0027   0.0130  -0.0025   0.0016   0.0031   0.00   98.5
2022/04/25 06:03:05.000   47.447037248   19.216762289   196.6898   1  15   0.0056   0.0046   0.0131  -0.0018   0.0009   0.0030   0.00   98.6
2022/04/25 06:03:06.000   47.447037251   19.216762288   196.6910   1  15   0.0056   0.0040   0.0131  -0.0020   0.0012   0.0030   0.00   99.0
2022/04/25 06:03:07.000   47.447037258   19.216762284   196.6917   1  15   0.0058   0.0045   0.0131  -0.0019   0.0011   0.0030   0.00   99.5
2022/04/25 06:03:08.000   47.447037257   19.216762282   196.6943   1  15   0.0057   0.0037   0.0131  -0.0023   0.0008   0.0029   0.00   99.6
2022/04/25 06:03:09.000   47.447037258   19.216762283   196.6915   1  15   0.0056   0.0042   0.0131  -0.0023   0.0011   0.0030   0.00  100.1
2022/04/25 06:03:10.000   47.447037254   19.216762269   196.6907   1  15   0.0055   0.0041   0.0131  -0.0013   0.0017   0.0031   0.00  100.4
2022/04/25 06:03:11.000   47.447037279   19.216762281   196.6929   1  15   0.0058   0.0043   0.0130  -0.0020   0.0012   0.0031   0.00  100.6
2022/04/25 06:03:12.000   47.447037269   19.216762286   196.6904   1  15   0.0057   0.0038   0.0130  -0.0019   0.0015   0.0032   0.00  100.7
2022/04/25 06:03:13.000   47.447037258   19.216762310   196.6910   1  15   0.0059   0.0040   0.0131  -0.0016   0.0017   0.0030   0.00  101.1
2022/04/25 06:03:14.000   47.447037257   19.216762290   196.6920   1  15   0.0058   0.0045   0.0131  -0.0019   0.0016   0.0033   0.00  101.2
2022/04/25 06:03:15.000   47.447037267   19.216762293   196.6881   1  15   0.0058   0.0041   0.0130  -0.0018   0.0016   0.0031   0.00  101.5
2022/04/25 06:03:16.000   47.447037272   19.216762296   196.6891   1  15   0.0054   0.0036   0.0130  -0.0020   0.0014   0.0029   0.00  101.7
2022/04/25 06:03:17.000   47.447037258   19.216762281   196.6918   1  15   0.0056   0.0044   0.0131  -0.0015   0.0018   0.0031   0.00  101.9
2022/04/25 06:03:18.000   47.447037267   19.216762280   196.6906   1  15   0.0059   0.0049   0.0130  -0.0023   0.0007   0.0030   0.00  102.3
2022/04/25 06:03:19.000   47.447037262   19.216762292   196.6957   1  15   0.0053   0.0043   0.0131  -0.0027   0.0011   0.0028   0.00  102.5
2022/04/25 06:03:20.000   47.447037268   19.216762285   196.6934   1  15   0.0057   0.0044   0.0131  -0.0019   0.0013   0.0028   0.00  102.9
2022/04/25 06:03:21.000   47.447037265   19.216762283   196.6895   1  15   0.0059   0.0047   0.0130  -0.0024   0.0016   0.0031   0.00  103.3
2022/04/25 06:03:22.000   47.447037264   19.216762289   196.6953   1  15   0.0057   0.0046   0.0131  -0.0009   0.0018   0.0031   0.00  103.6
2022/04/25 06:03:23.000   47.447037261   19.216762284   196.6906   1  15   0.0055   0.0044   0.0131  -0.0019   0.0014   0.0025   0.00  103.7
2022/04/25 06:03:24.000   47.447037250   19.216762293   196.6947   1  15   0.0061   0.0046   0.0130  -0.0022   0.0014   0.0033   0.00  104.1
2022/04/25 06:03:25.000   47.447037268   19.216762286   196.6956   1  15   0.0056   0.0044   0.0130  -0.0018   0.0017   0.0033   0.00  104.5
2022/04/25 06:03:26.000   47.447037246   19.216762279   196.6919   1  15   0.0059   0.0036   0.0130  -0.0026   0.0015   0.0031   0.00  104.7
2022/04/25 06:03:27.000   47.447037259   19.216762290   196.6899   1  15   0.0058   0.0040   0.0131  -0.0013   0.0018   0.0032   0.00  104.9
2022/04/25 06:03:28.000   47.447037263   19.216762288   196.6965   1  15   0.0055   0.0042   0.0131  -0.0020   0.0019   0.0029   0.00  105.1
2022/04/25 06:03:29.000   47.447037265   19.216762280   196.6914   1  15   0.0056   0.0046   0.0131  -0.0024   0.0013   0.0031   0.00  105.3
2022/04/25 06:03:30.000   47.447037265   19.216762289   196.6924   1  15   0.0056   0.0038   0.0130  -0.0024   0.0011   0.0030   0.00  105.2
2022/04/25 06:03:31.000   47.447037266   19.216762267   196.6946   1  15   0.0055   0.0049   0.0130  -0.0023   0.0015   0.0028   0.00  105.4
2022/04/25 06:03:32.000   47.447037262   19.216762286   196.6948   1  15   0.0055   0.0047   0.0130  -0.0018   0.0015   0.0030   0.00  105.6
2022/04/25 06:03:33.000   47.447037265   19.216762281   196.6940   1  15   0.0059   0.0044   0.0131  -0.0022   0.0015   0.0031   0.00  106.1
2022/04/25 06:03:34.000   47.447037268   19.216762285   196.6946   1  15   0.0059   0.0038   0.0130  -0.0023   0.0016   0.0031   0.00  106.4
2022/04/25 06:03:35.000   47.447037272   19.216762295   196.6945   1  15   0.0055   0.0038   0.0131  -0.0022   0.0009   0.0030   0.00  106.8
2022/04/25 06:03:36.000   47.447037265   19.216762279   196.6969   1  15   0.0055   0.0042   0.0131  -0.0018   0.0015   0.0028   0.00  107.2
2022/04/25 06:03:37.000   47.447037262   19.216762277   196.6942   1  15   0.0056   0.0046   0.0130  -0.0026   0.0012   0.0031   0.00  107.1
2022/04/25 06:03:38.000   47.447037291   19.216762280   196.7004   1  15   0.0058   0.0043   0.0130  -0.0018   0.0011   0.0029   0.00  107.8
2022/04/25 06:03:39.000   47.447037259   19.216762273   196.6962   1  15   0.0058   0.0042   0.0131  -0.0022   0.0012   0.0031   0.00  108.4
2022/04/25 06:03:40.000   47.447037264   19.216762292   196.6933   1  15   0.0056   0.0033   0.0130  -0.0017   0.0018   0.0030   0.00  108.7
2022/04/25 06:03:41.000   47.447037253   19.216762286   196.6970   1  15   0.0056   0.0043   0.0130  -0.0018   0.0017   0.0030   0.00  109.1
2022/04/25 06:03:42.000   47.447037253   19.216762279   196.6925   1  16   0.0054   0.0041   0.0130  -0.0017   0.0019   0.0031   0.00  109.6
2022/04/25 06:03:43.000   47.447037267   19.216762284   196.6967   1  16   0.0056   0.0042   0.0128  -0.0021   0.0018   0.0027   0.00  110.0
2022/04/25 06:03:44.000   47.447037267   19.216762292   196.6936   1  16   0.0056   0.0040   0.0127  -0.0021   0.0019   0.0029   0.00  110.2
2022/04/25 06:03:45.000   47.447037248   19.216762289   196.6896   1  16   0.0052   0.0041   0.0127  -0.0019   0.0017   0.0021   0.00  110.7
2022/04/25 06:03:46.000   47.447037270   19.216762274   196.6941   1  16   0.0059   0.0036   0.0126  -0.0020   0.0021   0.0027   0.00  111.0
2022/04/25 06:03:47.000   47.447037265   19.216762295   196.6896   1  16   0.0056   0.0042   0.0126  -0.0018   0.0022   0.0025   0.00  111.5
2022/04/25 06:03:48.000   47.447037286   19.216762294   196.6946   1  16   0.0059   0.0044   0.0126  -0.0020   0.0020   0.0029   0.00  111.8
2022/04/25 06:03:49.000   47.447037270   19.216762294   196.6947   1  16   0.0055   0.0045   0.0127  -0.0027   0.0021   0.0027   1.00  112.1
2022/04/25 06:03:50.000   47.447037270   19.216762287   196.6919   1  16   0.0061   0.0039   0.0132  -0.0025   0.0021   0.0029   2.00  112.5
2022/04/25 06:03:52.000   47.447037261   19.216762279   196.6937   1  16   0.0056   0.0034   0.0125  -0.0018   0.0024   0.0025   0.00  113.0
2022/04/25 06:03:53.000   47.447037270   19.216762276   196.6941   1  16   0.0056   0.0043   0.0126  -0.0021   0.0021   0.0024   0.00  113.1
2022/04/25 06:03:54.000   47.447037260   19.216762288   196.6932   1  16   0.0059   0.0044   0.0126  -0.0015   0.0023   0.0029   0.00  113.3
2022/04/25 06:03:55.000   47.447037260   19.216762288   196.6986   1  16   0.0056   0.0040   0.0126  -0.0019   0.0022   0.0023   0.00  113.5
2022/04/25 06:03:56.000   47.447037266   19.216762277   196.6966   1  16   0.0057   0.0044   0.0125  -0.0021   0.0022   0.0026   0.00  113.7
2022/04/25 06:03:57.000   47.447037262   19.216762287   196.6947   1  16   0.0057   0.0041   0.0125  -0.0027   0.0020   0.0022   0.00  113.8
2022/04/25 06:03:58.000   47.447037281   19.216762280   196.6955   1  16   0.0058   0.0034   0.0125  -0.0017   0.0023   0.0026   0.00  114.0
2022/04/25 06:04:00.000   47.447037262   19.216762294   196.6940   1  16   0.0056   0.0033   0.0125  -0.0020   0.0022   0.0024   0.00  114.3
2022/04/25 06:04:01.000   47.447037247   19.216762295   196.6920   1  16   0.0056   0.0039   0.0125  -0.0020   0.0019   0.0020   0.00  114.6
2022/04/25 06:04:02.000   47.447037263   19.216762285   196.6920   1  16   0.0057   0.0044   0.0125  -0.0025   0.0023   0.0023   0.00  115.2
2022/04/25 06:04:03.000   47.447037261   19.216762274   196.6949   1  16   0.0061   0.0031   0.0125  -0.0025   0.0020   0.0026   0.00  115.5
2022/04/25 06:04:04.000   47.447037263   19.216762282   196.6949   1  16   0.0059   0.0039   0.0126  -0.0022   0.0020   0.0025   0.00  115.9
2022/04/25 06:04:05.000   47.447037263   19.216762284   196.6941   1  16   0.0053   0.0042   0.0124  -0.0024   0.0021   0.0021   0.00  115.9
2022/04/25 06:04:06.000   47.447037261   19.216762264   196.6915   1  16   0.0060   0.0047   0.0125  -0.0020   0.0021   0.0027   0.00  116.3
2022/04/25 06:04:07.000   47.447037261   19.216762273   196.6966   1  16   0.0055   0.0044   0.0125  -0.0023   0.0020   0.0021   0.00  116.6
2022/04/25 06:04:08.000   47.447037271   19.216762275   196.6947   1  16   0.0058   0.0039   0.0125  -0.0024   0.0021   0.0022   0.00  117.0
2022/04/25 06:04:09.000   47.447037272   19.216762284   196.6957   1  16   0.0056   0.0043   0.0125  -0.0019   0.0019   0.0024   0.00  117.1
2022/04/25 06:04:10.000   47.447037267   19.216762283   196.6954   1  16   0.0058   0.0040   0.0125  -0.0028   0.0020   0.0023   0.00  117.2
2022/04/25 06:04:11.000   47.447037258   19.216762286   196.6966   1  16   0.0059   0.0037   0.0125  -0.0021   0.0022   0.0022   0.00  117.4
2022/04/25 06:04:12.000   47.447037254   19.216762281   196.6948   1  16   0.0055   0.0038   0.0125  -0.0014   0.0024   0.0023   0.00  117.7
2022/04/25 06:04:13.000   47.447037269   19.216762268   196.6933   1  16   0.0059   0.0038   0.0124  -0.0022   0.0021   0.0024   0.00  117.9
2022/04/25 06:04:14.000   47.447037272   19.216762261   196.6945   1  16   0.0059   0.0039   0.0125  -0.0021   0.0022   0.0028   0.00  118.4
2022/04/25 06:04:15.000   47.447037258   19.216762284   196.6965   1  16   0.0057   0.0039   0.0125  -0.0017   0.0023   0.0023   0.00  118.6
2022/04/25 06:04:16.000   47.447037274   19.216762269   196.6961   1  16   0.0059   0.0040   0.0124  -0.0025   0.0023   0.0027   0.00  118.8
2022/04/25 06:04:17.000   47.447037261   19.216762267   196.6966   1  16   0.0051   0.0039   0.0124  -0.0025   0.0021   0.0020   0.00  119.3
2022/04/25 06:04:18.000   47.447037255   19.216762296   196.6969   1  16   0.0058   0.0041   0.0125  -0.0016   0.0021   0.0025   0.00  119.5
2022/04/25 06:04:19.000   47.447037257   19.216762285   196.6973   1  16   0.0056   0.0042   0.0125  -0.0022   0.0021   0.0027   0.00  119.4
2022/04/25 06:04:20.000   47.447037258   19.216762281   196.6989   1  16   0.0057   0.0043   0.0125  -0.0025   0.0022   0.0022   0.00  119.7
2022/04/25 06:04:21.000   47.447037270   19.216762278   196.6984   1  16   0.0054   0.0038   0.0125  -0.0021   0.0025   0.0020   0.00  120.0
2022/04/25 06:04:22.000   47.447037260   19.216762280   196.6962   1  16   0.0058   0.0045   0.0125  -0.0019   0.0022   0.0025   0.00  120.2
2022/04/25 06:04:23.000   47.447037263   19.216762295   196.6986   1  16   0.0057   0.0042   0.0126  -0.0020   0.0020   0.0021   0.00  120.4
2022/04/25 06:04:24.000   47.447037257   19.216762282   196.6963   1  16   0.0059   0.0041   0.0125  -0.0023   0.0022   0.0023   0.00  120.8
2022/04/25 06:04:25.000   47.447037261   19.216762277   196.6987   1  16   0.0053   0.0041   0.0125  -0.0022   0.0019   0.0018   0.00  121.0
2022/04/25 06:04:26.000   47.447037259   19.216762284   196.6951   1  16   0.0056   0.0034   0.0125  -0.0018   0.0025   0.0024   0.00  120.9
2022/04/25 06:04:27.000   47.447037255   19.216762272   196.6958   1  16   0.0059   0.0043   0.0125  -0.0015   0.0023   0.0026   0.00  120.8
2022/04/25 06:04:28.000   47.447037259   19.216762278   196.6950   1  16   0.0060   0.0043   0.0125  -0.0027   0.0020   0.0023   0.00  121.0
2022/04/25 06:04:29.000   47.447037281   19.216762287   196.6955   1  16   0.0055   0.0033   0.0125  -0.0019   0.0022   0.0021   0.00  120.9
2022/04/25 06:04:30.000   47.447037257   19.216762284   196.7005   1  16   0.0055   0.0041   0.0125  -0.0024   0.0020   0.0022   0.00  120.9
2022/04/25 06:04:31.000   47.447037267   19.216762275   196.6980   1  16   0.0059   0.0036   0.0125  -0.0020   0.0021   0.0022   0.00  121.1
2022/04/25 06:04:32.000   47.447037264   19.216762274   196.6985   1  16   0.0053   0.0037   0.0125  -0.0016   0.0022   0.0024   0.00  121.4
2022/04/25 06:04:33.000   47.447037260   19.216762281   196.6973   1  16   0.0059   0.0040   0.0125  -0.0025   0.0017   0.0021   0.00  121.6
2022/04/25 06:04:34.000   47.447037252   19.216762294   196.6931   1  16   0.0053   0.0041   0.0125  -0.0017   0.0025   0.0021   0.00  122.1
2022/04/25 06:04:35.000   47.447037275   19.216762268   196.6974   1  16   0.0057   0.0033   0.0124  -0.0020   0.0022   0.0022   0.00  122.3
2022/04/25 06:04:36.000   47.447037265   19.216762295   196.6966   1  16   0.0057   0.0037   0.0125  -0.0017   0.0025   0.0024   0.00  122.8
2022/04/25 06:04:37.000   47.447037256   19.216762291   196.6940   1  16   0.0057   0.0040   0.0125  -0.0013   0.0024   0.0025   0.00  123.0
2022/04/25 06:04:38.000   47.447037272   19.216762290   196.6951   1  16   0.0057   0.0039   0.0125  -0.0021   0.0023   0.0023   0.00  123.4
2022/04/25 06:04:39.000   47.447037278   19.216762268   196.6959   1  16   0.0053   0.0040   0.0125  -0.0023   0.0019   0.0017   0.00  123.3
2022/04/25 06:04:40.000   47.447037264   19.216762274   196.6986   1  16   0.0056   0.0040   0.0124  -0.0024   0.0022   0.0021   0.00  123.7
2022/04/25 06:04:41.000   47.447037252   19.216762276   196.6962   1  16   0.0052   0.0032   0.0125  -0.0021   0.0022   0.0015   0.00  123.7
2022/04/25 06:04:42.000   47.447037255   19.216762283   196.6961   1  16   0.0055   0.0046   0.0125  -0.0019   0.0018   0.0022   0.00  123.7
2022/04/25 06:04:43.000   47.447037254   19.216762276   196.6975   1  16   0.0055   0.0050   0.0124  -0.0024   0.0023   0.0024   0.00  124.1
2022/04/25 06:04:44.000   47.447037276   19.216762264   196.6936   1  16   0.0059   0.0040   0.0124  -0.0021   0.0024   0.0020   0.00  124.2
2022/04/25 06:04:45.000   47.447037262   19.216762281   196.6988   1  16   0.0059   0.0035   0.0124  -0.0006   0.0025   0.0025   0.00  124.4
2022/04/25 06:04:46.000   47.447037263   19.216762281   196.6968   1  16   0.0055   0.0044   0.0125  -0.0018   0.0020   0.0025   0.00  124.5
2022/04/25 06:04:47.000   47.447037235   19.216762288   196.6976   1  16   0.0056   0.0041   0.0124  -0.0025   0.0023   0.0022   0.00  124.9
2022/04/25 06:04:48.000   47.447037268   19.216762276   196.6998   1  16   0.0056   0.0041   0.0124  -0.0020   0.0023   0.0023   0.00  125.0
2022/04/25 06:04:49.000   47.447037289   19.216762297   196.7004   1   7   0.0095   0.0072   0.0184  -0.0050   0.0061   0.0025   0.00   47.0
2022/04/25 06:04:50.000   47.447037271   19.216762289   196.7019   1  16   0.0059   0.0034   0.0124  -0.0019   0.0023   0.0021   0.00  125.7
2022/04/25 06:04:51.000   47.447037255   19.216762280   196.6959   1  16   0.0057   0.0033   0.0124  -0.0024   0.0023   0.0021   0.00  126.0
2022/04/25 06:04:52.000   47.447037268   19.216762287   196.6948   1  16   0.0055   0.0047   0.0124  -0.0020   0.0023   0.0019   0.00  126.2
2022/04/25 06:04:53.000   47.447037259   19.216762277   196.6949   1  16   0.0058   0.0042   0.0124  -0.0023   0.0019   0.0022   0.00  126.6
2022/04/25 06:04:54.000   47.447037256   19.216762271   196.7016   1  16   0.0057   0.0041   0.0124  -0.0024   0.0024   0.0025   0.00  126.6
2022/04/25 06:04:55.000   47.447037254   19.216762298   196.7012   1  16   0.0057   0.0040   0.0124  -0.0023   0.0023   0.0022   0.00  126.6
2022/04/25 06:04:56.000   47.447037251   19.216762266   196.7012   1  16   0.0058   0.0034   0.0124  -0.0019   0.0022   0.0021   0.00  126.8
2022/04/25 06:04:57.000   47.447037255   19.216762286   196.6971   1  16   0.0054   0.0041   0.0125  -0.0021   0.0020   0.0016   0.00  127.3
2022/04/25 06:04:58.000   47.447037255   19.216762287   196.7017   1  16   0.0057   0.0044   0.0124  -0.0022   0.0022   0.0023   0.00  127.2
2022/04/25 06:04:59.000   47.447037264   19.216762272   196.6989   1  16   0.0062   0.0041   0.0124  -0.0026   0.0021   0.0024   0.00  127.3
2022/04/25 06:05:00.000   47.447037267   19.216762288   196.6978   1  16   0.0055   0.0045   0.0125  -0.0024   0.0022   0.0023   0.00  127.4
2022/04/25 06:05:01.000   47.447037258   19.216762293   196.6983   1  16   0.0056   0.0040   0.0125  -0.0018   0.0023   0.0021   0.00  127.6
2022/04/25 06:05:02.000   47.447037252   19.216762277   196.6999   1  16   0.0058   0.0043   0.0124  -0.0026   0.0021   0.0025   0.00  127.7
2022/04/25 06:05:03.000   47.447037261   19.216762282   196.6974   1  16   0.0056   0.0039   0.0124  -0.0024   0.0019   0.0018   0.00  127.8
2022/04/25 06:05:04.000   47.447037241   19.216762289   196.6972   1  16   0.0059   0.0038   0.0125  -0.0019   0.0024   0.0023   0.00  127.6
2022/04/25 06:05:05.000   47.447037259   19.216762288   196.7012   1  16   0.0052   0.0030   0.0124  -0.0023   0.0022   0.0018   0.00  128.0
2022/04/25 06:05:06.000   47.447037263   19.216762279   196.6985   1  16   0.0058   0.0032   0.0124  -0.0018   0.0025   0.0021   0.00  128.0
2022/04/25 06:05:07.000   47.447037250   19.216762283   196.6990   1  16   0.0058   0.0037   0.0125  -0.0023   0.0021   0.0023   0.00  128.0
2022/04/25 06:05:08.000   47.447037268   19.216762266   196.6996   1  16   0.0055   0.0041   0.0125  -0.0015   0.0023   0.0019   0.00  127.9
2022/04/25 06:05:09.000   47.447037243   19.216762277   196.7000   1  16   0.0054   0.0033   0.0125  -0.0015   0.0027   0.0021   0.00  127.8
2022/04/25 06:05:10.000   47.447037244   19.216762281   196.6971   1  16   0.0059   0.0047   0.0125  -0.0018   0.0022   0.0023   0.00  127.7
2022/04/25 06:05:11.000   47.447037267   19.216762274   196.7008   1  16   0.0054   0.0038   0.0125  -0.0015   0.0025   0.0018   0.00  127.7
2022/04/25 06:05:12.000   47.447037254   19.216762286   196.6991   1  16   0.0054   0.0041   0.0124  -0.0016   0.0021   0.0016   0.00  128.0
2022/04/25 06:05:13.000   47.447037252   19.216762271   196.6998   1  16   0.0054   0.0039   0.0124  -0.0025   0.0020   0.0014   0.00  127.6
2022/04/25 06:05:14.000   47.447037249   19.216762291   196.6984   1  16   0.0058   0.0045   0.0125  -0.0025   0.0021   0.0022   0.00  127.6
2022/04/25 06:05:15.000   47.447037255   19.216762264   196.6979   1  16   0.0058   0.0051   0.0124  -0.0026   0.0021   0.0021   0.00  127.5
2022/04/25 06:05:16.000   47.447037264   19.216762276   196.7022   1  16   0.0054   0.0038   0.0124  -0.0028   0.0019   0.0020   0.00  127.7
2022/04/25 06:05:17.000   47.447037263   19.216762283   196.7010   1  16   0.0055   0.0037   0.0124  -0.0023   0.0024   0.0020   0.00  127.7
2022/04/25 06:05:18.000   47.447037261   19.216762286   196.7011   1  16   0.0055   0.0044   0.0124  -0.0028   0.0023   0.0022   0.00  127.7
2022/04/25 06:05:19.000   47.447037241   19.216762280   196.6977   1  16   0.0059   0.0040   0.0123  -0.0024   0.0024   0.0022   0.00  127.5
2022/04/25 06:05:20.000   47.447037257   19.216762271   196.7008   1  16   0.0056   0.0041   0.0125  -0.0016   0.0024   0.0022   0.00  127.5
2022/04/25 06:05:21.000   47.447037258   19.216762272   196.6982   1  16   0.0056   0.0041   0.0124  -0.0018   0.0026   0.0021   0.00  127.4
2022/04/25 06:05:22.000   47.447037247   19.216762274   196.6976   1  16   0.0058   0.0038   0.0125  -0.0020   0.0022   0.0020   0.00  127.1
2022/04/25 06:05:23.000   47.447037260   19.216762270   196.7000   1  16   0.0055   0.0038   0.0125  -0.0021   0.0023   0.0018   0.00  127.0
2022/04/25 06:05:24.000   47.447037266   19.216762254   196.7025   1  16   0.0059   0.0036   0.0124  -0.0023   0.0024   0.0023   0.00  126.7
2022/04/25 06:05:25.000   47.447037247   19.216762272   196.7004   1  16   0.0061   0.0046   0.0124  -0.0028   0.0023   0.0024   0.00  126.5
2022/04/25 06:05:26.000   47.447037250   19.216762262   196.7016   1  16   0.0059   0.0038   0.0124  -0.0021   0.0024   0.0015   0.00  126.3
2022/04/25 06:05:27.000   47.447037239   19.216762280   196.7028   1  16   0.0057   0.0043   0.0125  -0.0023   0.0020   0.0017   0.00  126.4
2022/04/25 06:05:28.000   47.447037254   19.216762280   196.7016   1  16   0.0057   0.0034   0.0125  -0.0025   0.0022   0.0017   0.00  126.3
2022/04/25 06:05:29.000   47.447037252   19.216762281   196.6990   1  16   0.0061   0.0044   0.0125  -0.0020   0.0021   0.0021   0.00  126.3
2022/04/25 06:05:30.000   47.447037256   19.216762284   196.6991   1  16   0.0056   0.0046   0.0125  -0.0022   0.0021   0.0022   0.00  126.2
2022/04/25 06:05:31.000   47.447037256   19.216762267   196.7003   1  16   0.0055   0.0042   0.0124  -0.0021   0.0022   0.0019   0.00  126.3
2022/04/25 06:05:32.000   47.447037250   19.216762260   196.6987   1  16   0.0057   0.0037   0.0125  -0.0021   0.0023   0.0020   0.00  126.5
2022/04/25 06:05:33.000   47.447037266   19.216762275   196.6999   1  16   0.0057   0.0030   0.0124  -0.0018   0.0024   0.0018   0.00  126.6
2022/04/25 06:05:34.000   47.447037256   19.216762264   196.6974   1  16   0.0056   0.0043   0.0124  -0.0027   0.0023   0.0017   0.00  126.6
2022/04/25 06:05:35.000   47.447037254   19.216762262   196.7014   1  16   0.0052   0.0046   0.0125  -0.0020   0.0022   0.0014   0.00  126.7
2022/04/25 06:05:36.000   47.447037243   19.216762271   196.6998   1  16   0.0056   0.0036   0.0124  -0.0021   0.0023   0.0022   0.00  126.5
2022/04/25 06:05:37.000   47.447037247   19.216762273   196.6974   1  16   0.0054   0.0044   0.0125  -0.0021   0.0023   0.0019   0.00  126.5
2022/04/25 06:05:38.000   47.447037245   19.216762269   196.6990   1  16   0.0058   0.0044   0.0123  -0.0025   0.0024   0.0022   0.00  126.3
2022/04/25 06:05:39.000   47.447037255   19.216762260   196.6961   1  16   0.0056   0.0046   0.0125  -0.0013   0.0027   0.0024   0.00  126.2
2022/04/25 06:05:40.000   47.447037253   19.216762258   196.6987   1  16   0.0055   0.0040   0.0125  -0.0018   0.0024   0.0023   0.00  126.4
2022/04/25 06:05:41.000   47.447037235   19.216762247   196.7000   1  16   0.0054   0.0035   0.0124  -0.0017   0.0023   0.0011   0.00  126.2
2022/04/25 06:05:42.000   47.447037255   19.216762263   196.7001   1  16   0.0054   0.0046   0.0125  -0.0023   0.0022   0.0019   0.00  126.2
2022/04/25 06:05:43.000   47.447037248   19.216762260   196.7002   1  16   0.0059   0.0040   0.0124  -0.0026   0.0025   0.0022   0.00  126.1
2022/04/25 06:05:44.000   47.447037243   19.216762276   196.6956   1  16   0.0058   0.0044   0.0125  -0.0017   0.0020   0.0018   0.00  126.3
2022/04/25 06:05:45.000   47.447037243   19.216762263   196.6969   1  16   0.0057   0.0044   0.0125  -0.0021   0.0022   0.0023   0.00  126.2
2022/04/25 06:05:46.000   47.447037250   19.216762256   196.6983   1  16   0.0056   0.0036   0.0125  -0.0021   0.0022   0.0012   0.00  126.1
2022/04/25 06:05:47.000   47.447037244   19.216762273   196.6985   1  16   0.0060   0.0042   0.0125  -0.0020   0.0022   0.0021   0.00  126.1
2022/04/25 06:05:48.000   47.447037252   19.216762267   196.6970   1  16   0.0057   0.0041   0.0124  -0.0024   0.0023   0.0014   0.00  126.2
2022/04/25 06:05:49.000   47.447037288   19.216762276   196.6965   1   7   0.0096   0.0071   0.0184  -0.0051   0.0063   0.0020   0.00   56.1
2022/04/25 06:05:50.000   47.447037249   19.216762265   196.6979   1  16   0.0054   0.0039   0.0124  -0.0020   0.0025   0.0015   0.00  126.6
2022/04/25 06:05:51.000   47.447037247   19.216762267   196.6990   1  16   0.0055   0.0043   0.0125  -0.0020   0.0021   0.0017   0.00  126.9
2022/04/25 06:05:52.000   47.447037239   19.216762273   196.7011   1  16   0.0055   0.0039   0.0124  -0.0011   0.0025   0.0022   0.00  127.1
2022/04/25 06:05:53.000   47.447037252   19.216762282   196.7004   1  16   0.0055   0.0036   0.0124  -0.0020   0.0022   0.0020   0.00  127.2
2022/04/25 06:05:54.000   47.447037249   19.216762274   196.7012   1  16   0.0055   0.0043   0.0124  -0.0019   0.0023   0.0015   0.00  127.2
2022/04/25 06:05:55.000   47.447037250   19.216762276   196.6985   1  16   0.0053   0.0038   0.0124  -0.0023   0.0025   0.0017   0.00  127.3
2022/04/25 06:05:56.000   47.447037243   19.216762285   196.6983   1  16   0.0054   0.0043   0.0124  -0.0023   0.0023   0.0015   0.00  127.7
2022/04/25 06:05:57.000   47.447037230   19.216762267   196.7010   1  16   0.0056   0.0044   0.0125  -0.0015   0.0024   0.0018   0.00  127.8
2022/04/25 06:05:58.000   47.447037238   19.216762258   196.6987   1  16   0.0052   0.0041   0.0124  -0.0024   0.0025   0.0018   0.00  127.6
2022/04/25 06:05:59.000   47.447037252   19.216762264   196.6991   1  16   0.0062   0.0046   0.0124  -0.0022   0.0024   0.0023   0.00  127.6
2022/04/25 06:06:00.000   47.447037251   19.216762273   196.7015   1  16   0.0051   0.0040   0.0124  -0.0023   0.0022   0.0013   0.00  127.4
2022/04/25 06:06:01.000   47.447037260   19.216762271   196.6998   1  16   0.0058   0.0044   0.0124  -0.0023   0.0021   0.0020   0.00  127.5
2022/04/25 06:06:02.000   47.447037255   19.216762262   196.6961   1  16   0.0053   0.0035   0.0124  -0.0024   0.0022   0.0015   0.00  127.3
2022/04/25 06:06:03.000   47.447037248   19.216762275   196.7002   1  16   0.0059   0.0037   0.0124  -0.0026   0.0022   0.0017   0.00  127.3
2022/04/25 06:06:04.000   47.447037263   19.216762265   196.6989   1  16   0.0056   0.0044   0.0124  -0.0021   0.0019   0.0016   0.00  127.1
2022/04/25 06:06:05.000   47.447037233   19.216762269   196.7008   1  16   0.0057   0.0037   0.0124  -0.0021   0.0024   0.0019   0.00  127.0
2022/04/25 06:06:06.000   47.447037251   19.216762275   196.7017   1  16   0.0056   0.0040   0.0124  -0.0025   0.0022   0.0018   0.00  126.9
2022/04/25 06:06:07.000   47.447037244   19.216762261   196.7026   1  16   0.0059   0.0045   0.0124  -0.0023   0.0026   0.0023   0.00  126.9
2022/04/25 06:06:08.000   47.447037236   19.216762274   196.6971   1  16   0.0059   0.0038   0.0124  -0.0026   0.0022   0.0018   0.00  126.7
2022/04/25 06:06:09.000   47.447037247   19.216762248   196.7022   1  16   0.0054   0.0039   0.0124  -0.0025   0.0024   0.0017   0.00  126.9
2022/04/25 06:06:10.000   47.447037239   19.216762268   196.6950   1  16   0.0058   0.0041   0.0124  -0.0024   0.0028   0.0020   0.00  126.9
2022/04/25 06:06:11.000   47.447037245   19.216762261   196.6991   1  16   0.0058   0.0044   0.0124  -0.0021   0.0023   0.0020   0.00  126.9
2022/04/25 06:06:12.000   47.447037256   19.216762261   196.6940   1  16   0.0059   0.0041   0.0124  -0.0023   0.0026   0.0019   0.00  126.9
2022/04/25 06:06:13.000   47.447037251   19.216762260   196.6985   1  16   0.0058   0.0045   0.0124  -0.0026   0.0020   0.0018   0.00  126.9
2022/04/25 06:06:14.000   47.447037250   19.216762278   196.6964   1  16   0.0059   0.0042   0.0124  -0.0018   0.0022   0.0020   0.00  126.7
2022/04/25 06:06:15.000   47.447037248   19.216762266   196.6980   1  16   0.0056   0.0038   0.0124  -0.0027   0.0022   0.0009   0.00  126.7
2022/04/25 06:06:16.000   47.447037247   19.216762271   196.6973   1  16   0.0057   0.0042   0.0124  -0.0026   0.0020   0.0016   0.00  126.9
2022/04/25 06:06:17.000   47.447037248   19.216762266   196.6972   1  16   0.0059   0.0044   0.0124  -0.0023   0.0023   0.0018   0.00  126.7
2022/04/25 06:06:18.000   47.447037251   19.216762268   196.6984   1  16   0.0057   0.0040   0.0124  -0.0025   0.0023   0.0016   0.00  126.0
2022/04/25 06:06:19.000   47.447037265   19.216762267   196.6980   1  16   0.0058   0.0047   0.0124  -0.0029   0.0022   0.0018   0.00  125.6
2022/04/25 06:06:20.000   47.447037236   19.216762269   196.6976   1  16   0.0058   0.0034   0.0124  -0.0019   0.0025   0.0021   0.00  125.5
2022/04/25 06:06:21.000   47.447037258   19.216762257   196.6970   1  16   0.0055   0.0044   0.0124  -0.0025   0.0022   0.0016   0.00  125.5
2022/04/25 06:06:22.000   47.447037247   19.216762269   196.6963   1  16   0.0057   0.0039   0.0124  -0.0025   0.0022   0.0019   0.00  125.2
2022/04/25 06:06:23.000   47.447037243   19.216762266   196.6953   1  16   0.0060   0.0036   0.0124  -0.0026   0.0026   0.0022   0.00  125.2
2022/04/25 06:06:24.000   47.447037255   19.216762270   196.6964   1  16   0.0059   0.0040   0.0124  -0.0026   0.0024   0.0020   0.00  124.8
2022/04/25 06:06:25.000   47.447037236   19.216762281   196.6999   1  16   0.0058   0.0042   0.0124  -0.0023   0.0025   0.0020   0.00  124.6
2022/04/25 06:06:26.000   47.447037250   19.216762283   196.6988   1  16   0.0057   0.0042   0.0124  -0.0021   0.0027   0.0019   0.00  124.3
2022/04/25 06:06:27.000   47.447037239   19.216762286   196.6967   1  16   0.0054   0.0044   0.0124  -0.0025   0.0021   0.0011   0.00  124.0
2022/04/25 06:06:28.000   47.447037227   19.216762287   196.6981   1  16   0.0056   0.0042   0.0124  -0.0022   0.0022   0.0016   0.00  123.8
2022/04/25 06:06:29.000   47.447037233   19.216762267   196.6984   1  16   0.0057   0.0035   0.0124   0.0007   0.0024   0.0019   0.00  123.7
2022/04/25 06:06:30.000   47.447037239   19.216762263   196.6972   1  16   0.0055   0.0043   0.0124  -0.0014   0.0026   0.0019   0.00  123.3
2022/04/25 06:06:31.000   47.447037232   19.216762282   196.6982   1  16   0.0057   0.0035   0.0124  -0.0016   0.0027   0.0018   0.00  123.1
2022/04/25 06:06:32.000   47.447037246   19.216762269   196.6967   1  16   0.0053   0.0042   0.0125  -0.0019   0.0023   0.0009   0.00  122.8
2022/04/25 06:06:33.000   47.447037244   19.216762254   196.6953   1  16   0.0057   0.0038   0.0124  -0.0018   0.0026   0.0020   0.00  122.4
2022/04/25 06:06:34.000   47.447037240   19.216762259   196.6965   1  16   0.0056   0.0037   0.0125  -0.0022   0.0023   0.0015   0.00  122.1
2022/04/25 06:06:35.000   47.447037238   19.216762274   196.6969   1  16   0.0058   0.0040   0.0124  -0.0024   0.0022   0.0018   0.00  122.1
2022/04/25 06:06:37.000   47.447037240   19.216762272   196.6939   1  16   0.0059   0.0037   0.0124  -0.0027   0.0023   0.0016   0.00  121.9
2022/04/25 06:06:38.000   47.447037239   19.216762280   196.6960   1  16   0.0056   0.0040   0.0124  -0.0024   0.0024   0.0010   0.00  121.5
2022/04/25 06:06:39.000   47.447037236   19.216762259   196.6978   1  16   0.0055   0.0039   0.0124  -0.0024   0.0025   0.0012   0.00  121.3
2022/04/25 06:06:40.000   47.447037242   19.216762271   196.6985   1  16   0.0055   0.0040   0.0124  -0.0024   0.0024   0.0013   0.00  121.0
2022/04/25 06:06:41.000   47.447037238   19.216762268   196.6940   1  16   0.0057   0.0046   0.0124  -0.0023   0.0026   0.0019   0.00  120.9
2022/04/25 06:06:42.000   47.447037252   19.216762263   196.6952   1  16   0.0054   0.0039   0.0124  -0.0026   0.0021   0.0013   0.00  145.3
2022/04/25 06:06:43.000   47.447037252   19.216762270   196.6955   1  16   0.0052   0.0042   0.0124  -0.0022   0.0022  -0.0004   0.00  145.0
2022/04/25 06:06:44.000   47.447037249   19.216762259   196.6908   1  16   0.0055   0.0045   0.0124  -0.0022   0.0021   0.0017   0.00  144.8
2022/04/25 06:06:45.000   47.447037251   19.216762262   196.6926   1  16   0.0054   0.0048   0.0124  -0.0022   0.0024   0.0017   0.00  144.3
2022/04/25 06:06:46.000   47.447037244   19.216762286   196.6959   1  16   0.0057   0.0037   0.0124  -0.0024   0.0025   0.0019   0.00  144.0
2022/04/25 06:06:47.000   47.447037261   19.216762273   196.6907   1  16   0.0053   0.0038   0.0124  -0.0023   0.0026   0.0010   0.00  143.7
2022/04/25 06:06:48.000   47.447037243   19.216762275   196.6952   1  16   0.0054   0.0038   0.0125  -0.0017   0.0025   0.0016   0.00  143.2
2022/04/25 06:06:49.000   47.447037252   19.216762264   196.6955   1  16   0.0057   0.0039   0.0124  -0.0028   0.0027   0.0020   0.00  142.9
2022/04/25 06:06:50.000   47.447037244   19.216762260   196.6948   1  16   0.0053   0.0045   0.0124  -0.0020   0.0025   0.0010   0.00  142.4
2022/04/25 06:06:51.000   47.447037252   19.216762273   196.6923   1  16   0.0056   0.0038   0.0124  -0.0019   0.0025   0.0014   0.00  142.0
2022/04/25 06:06:52.000   47.447037249   19.216762277   196.6916   1  16   0.0057   0.0042   0.0124  -0.0019   0.0025   0.0017   0.00  141.7
2022/04/25 06:06:53.000   47.447037246   19.216762286   196.6939   1  16   0.0056   0.0040   0.0124  -0.0023   0.0024   0.0015   0.00  141.2
2022/04/25 06:06:54.000   47.447037243   19.216762269   196.6948   1  16   0.0054   0.0043   0.0124  -0.0007   0.0029   0.0017   0.00  141.0
2022/04/25 06:06:55.000   47.447037237   19.216762293   196.6904   1  16   0.0056   0.0039   0.0124  -0.0019   0.0024   0.0017   0.00  140.7
2022/04/25 06:06:56.000   47.447037235   19.216762294   196.6929   1  16   0.0059   0.0035   0.0124  -0.0025   0.0022   0.0016   0.00  140.3
2022/04/25 06:06:57.000   47.447037238   19.216762275   196.6935   1  16   0.0058   0.0043   0.0124  -0.0026   0.0023   0.0010   0.00  140.0
2022/04/25 06:06:58.000   47.447037235   19.216762288   196.6961   1  16   0.0060   0.0042   0.0125  -0.0016   0.0025   0.0016   0.00  139.9
2022/04/25 06:06:59.000   47.447037242   19.216762270   196.6943   1  16   0.0058   0.0041   0.0124  -0.0022   0.0024   0.0016   0.00  139.6
2022/04/25 06:07:00.000   47.447037251   19.216762265   196.6905   1  16   0.0058   0.0042   0.0124  -0.0023   0.0024   0.0012   0.00  139.4
2022/04/25 06:07:01.000   47.447037253   19.216762274   196.6906   1  16   0.0056   0.0040   0.0123  -0.0015   0.0028   0.0017   0.00  139.2
2022/04/25 06:07:02.000   47.447037232   19.216762270   196.6886   1  16   0.0058   0.0041   0.0125  -0.0027   0.0027   0.0018   1.00  138.8
2022/04/25 06:07:03.000   47.447037235   19.216762262   196.6932   1  16   0.0058   0.0044   0.0124  -0.0019   0.0025   0.0021   0.00  138.4
2022/04/25 06:07:05.000   47.447037237   19.216762268   196.6882   1  16   0.0056   0.0047   0.0125  -0.0022   0.0026   0.0016   0.00  138.1
2022/04/25 06:07:06.000   47.447037249   19.216762267   196.6911   1  16   0.0056   0.0039   0.0124  -0.0019   0.0025   0.0013   0.00  137.9
2022/04/25 06:07:07.000   47.447037255   19.216762272   196.6936   1  16   0.0056   0.0039   0.0123  -0.0032   0.0019   0.0012   0.00  137.8
2022/04/25 06:07:08.000   47.447037246   19.216762268   196.6910   1  16   0.0054   0.0040   0.0125  -0.0017   0.0025   0.0006   0.00  137.4
2022/04/25 06:07:09.000   47.447037247   19.216762268   196.6938   1  16   0.0055   0.0044   0.0124  -0.0020   0.0026   0.0016   0.00  137.3
2022/04/25 06:07:10.000   47.447037243   19.216762277   196.6923   1  16   0.0056   0.0037   0.0124  -0.0024   0.0023   0.0010   0.00  137.0
2022/04/25 06:07:11.000   47.447037233   19.216762284   196.6925   1  16   0.0059   0.0034   0.0123  -0.0021   0.0024   0.0012   0.00  136.8
2022/04/25 06:07:12.000   47.447037242   19.216762278   196.6923   1  16   0.0056   0.0038   0.0124  -0.0019   0.0024   0.0013   0.00  136.5
2022/04/25 06:07:13.000   47.447037243   19.216762277   196.6906   1  16   0.0058   0.0040   0.0124  -0.0024   0.0023   0.0015   0.00  136.0
2022/04/25 06:07:14.000   47.447037258   19.216762277   196.6916   1  16   0.0059   0.0040   0.0124  -0.0021   0.0026   0.0020   0.00  135.6
2022/04/25 06:07:15.000   47.447037238   19.216762276   196.6924   1  16   0.0058   0.0041   0.0124  -0.0021   0.0024   0.0017   0.00  135.5
2022/04/25 06:07:16.000   47.447037244   19.216762265   196.6934   1  16   0.0056   0.0043   0.0124  -0.0026   0.0023   0.0006   0.00  135.0
