% program   : RTKLIB ver.demo5 b33c
% inp file  : /home/hegyi/Paripa/Downloaded_zips/PildoBox20522115h.obs
% inp file  : /home/hegyi/Paripa/Reference_for_Kinematic/PildoBox205202211507.obs
% inp file  : /home/hegyi/Paripa/Downloaded_zips/PildoBox20522115g.nav
% obs start : 2022/04/25 07:00:02.0 GPST (week2207 111602.0s)
% obs end   : 2022/04/25 08:00:01.0 GPST (week2207 115201.0s)
% pos mode  : kinematic
% freqs     : L1+L2/E5b
% solution  : forward
% elev mask : 10.0 deg
% dynamics  : off
% tidecorr  : off
% ionos opt : broadcast
% tropo opt : saastamoinen
% ephemeris : broadcast
% amb res   : fix and hold
% val thres : 3.0
% antenna1  :                       ( 0.0000  0.0000  0.0000)
% antenna2  :                       ( 0.0000  0.0000  0.0000)
% ref pos   : 47.479024318  19.057702703  178.8463
%
% (lat/lon/height=WGS84/ellipsoidal,Q=1:fix,2:float,3:sbas,4:dgps,5:single,6:ppp,ns=# of satellites)
%  GPST                  latitude(deg) longitude(deg)  height(m)   Q  ns   sdn(m)   sde(m)   sdu(m)  sdne(m)  sdeu(m)  sdun(m) age(s)  ratio
2022/04/25 07:00:02.000   47.447037634   19.216762278   195.8625   2   9   2.1623   1.7114   3.4426  -1.1648   1.0571  -1.3305   0.00    0.0
2022/04/25 07:00:03.000   47.447036833   19.216763536   196.0958   2   9   1.7137   1.3337   2.6222  -0.9844   0.8931  -1.0769   0.00    0.0
2022/04/25 07:00:04.000   47.447036684   19.216763664   196.1385   2   9   1.4634   1.1318   2.2008  -0.8609   0.7797  -0.9283   0.00    0.0
2022/04/25 07:00:05.000   47.447036025   19.216763955   196.2143   2   9   1.2972   1.0006   1.9325  -0.7726   0.6990  -0.8273   0.00    0.0
2022/04/25 07:00:06.000   47.447035594   19.216763356   196.2776   2   9   1.1763   0.9063   1.7421  -0.7058   0.6381  -0.7527   0.00    0.0
2022/04/25 07:00:07.000   47.447035197   19.216763398   196.3540   2   9   1.0828   0.8343   1.5976  -0.6529   0.5901  -0.6945   0.00    0.0
2022/04/25 07:00:08.000   47.447035382   19.216763424   196.4172   2   9   1.0075   0.7768   1.4829  -0.6096   0.5508  -0.6473   0.00    0.0
2022/04/25 07:00:09.000   47.447036219   19.216763139   196.3643   2   9   0.9450   0.7296   1.3887  -0.5732   0.5179  -0.6080   0.00    0.0
2022/04/25 07:00:10.000   47.447036138   19.216763054   196.4070   2   9   0.8919   0.6898   1.3094  -0.5419   0.4896  -0.5745   0.00    0.0
2022/04/25 07:00:11.000   47.447036140   19.216762968   196.4061   2   9   0.8458   0.6556   1.2413  -0.5146   0.4651  -0.5454   0.00    0.0
2022/04/25 07:00:12.000   47.447036300   19.216762329   196.4371   2   9   0.8054   0.6258   1.1819  -0.4904   0.4433  -0.5197   0.00    0.0
2022/04/25 07:00:13.000   47.447036359   19.216762101   196.4507   2   9   0.7694   0.5996   1.1293  -0.4688   0.4239  -0.4969   0.00    0.0
2022/04/25 07:00:14.000   47.447036575   19.216761932   196.4719   2   9   0.7370   0.5762   1.0823  -0.4492   0.4063  -0.4763   0.00    0.0
2022/04/25 07:00:15.000   47.447036847   19.216761714   196.4854   2   9   0.7075   0.5551   1.0399  -0.4314   0.3903  -0.4576   0.00    0.0
2022/04/25 07:00:16.000   47.447036964   19.216761469   196.4435   2   9   0.6806   0.5360   1.0013  -0.4150   0.3757  -0.4405   0.00    0.0
2022/04/25 07:00:19.000   47.447037019   19.216761586   196.4719   2   9   0.6525   0.5178   0.9625  -0.3976   0.3603  -0.4227   0.00    0.0
2022/04/25 07:00:23.000   47.447037232   19.216761599   196.4717   2   9   0.6214   0.4999   0.9211  -0.3779   0.3432  -0.4033   0.00    0.0
2022/04/25 07:00:26.000   47.447037284   19.216761607   196.4632   2   9   0.5900   0.4828   0.8799  -0.3578   0.3255  -0.3837   0.00    0.0
2022/04/25 07:00:30.000   47.447037231   19.216761748   196.5011   2   9   0.5567   0.4660   0.8369  -0.3362   0.3066  -0.3631   0.00    0.0
2022/04/25 07:00:31.000   47.447037146   19.216761922   196.5313   2   9   0.5286   0.4509   0.7997  -0.3179   0.2902  -0.3456   0.00    0.0
2022/04/25 07:00:33.000   47.447037197   19.216762095   196.5117   2   9   0.5025   0.4371   0.7650  -0.3009   0.2750  -0.3293   0.00    0.0
2022/04/25 07:00:34.000   47.447037446   19.216762133   196.4690   2   9   0.4805   0.4247   0.7346  -0.2866   0.2618  -0.3154   1.00    0.0
2022/04/25 07:00:35.000   47.447037659   19.216762094   196.4098   2   9   0.4624   0.4136   0.7080  -0.2749   0.2505  -0.3036   2.00    0.0
2022/04/25 07:00:38.000   47.447037600   19.216762260   196.4231   2   9   0.4416   0.4026   0.6801  -0.2613   0.2382  -0.2905   0.00    0.0
2022/04/25 07:00:40.000   47.447037464   19.216762381   196.4583   2   9   0.4222   0.3922   0.6538  -0.2485   0.2266  -0.2784   0.00    0.0
2022/04/25 07:00:41.000   47.447037209   19.216762613   196.4672   2   9   0.4052   0.3826   0.6303  -0.2373   0.2162  -0.2677   0.00    0.0
2022/04/25 07:00:42.000   47.447037149   19.216762550   196.4358   2   9   0.3899   0.3738   0.6090  -0.2273   0.2069  -0.2581   0.00    0.0
2022/04/25 07:00:46.000   47.447036718   19.216763070   196.4840   2   9   0.3735   0.3652   0.5862  -0.2164   0.1967  -0.2478   0.00    0.0
2022/04/25 07:00:49.000   47.447036858   19.216762905   196.5028   2   9   0.3573   0.3568   0.5636  -0.2056   0.1863  -0.2376   0.00    0.0
2022/04/25 07:00:50.000   47.447036740   19.216763103   196.5323   2   9   0.3431   0.3491   0.5435  -0.1960   0.1771  -0.2286   0.00    0.0
2022/04/25 07:00:51.000   47.447036631   19.216763091   196.5627   2   9   0.3304   0.3419   0.5254  -0.1875   0.1689  -0.2205   0.00    0.0
2022/04/25 07:00:53.000   47.447036405   19.216763243   196.5894   2   9   0.3184   0.3351   0.5080  -0.1795   0.1610  -0.2129   0.00    0.0
2022/04/25 07:00:54.000   47.447036392   19.216763371   196.5951   2   9   0.3075   0.3288   0.4922  -0.1722   0.1538  -0.2059   0.00    0.0
2022/04/25 07:00:55.000   47.447036336   19.216763513   196.6217   2   9   0.2977   0.3228   0.4777  -0.1656   0.1473  -0.1996   0.00    0.0
2022/04/25 07:00:56.000   47.447036264   19.216763690   196.6632   2   9   0.2887   0.3173   0.4644  -0.1596   0.1413  -0.1938   0.00    0.0
2022/04/25 07:00:57.000   47.447036227   19.216763768   196.6789   2   9   0.2804   0.3120   0.4520  -0.1540   0.1358  -0.1885   0.00    0.0
2022/04/25 07:00:58.000   47.447036197   19.216763866   196.6832   2   9   0.2727   0.3070   0.4405  -0.1489   0.1306  -0.1835   0.00    0.0
2022/04/25 07:00:59.000   47.447036179   19.216764034   196.6935   2   9   0.2655   0.3022   0.4297  -0.1442   0.1259  -0.1789   0.00    0.0
2022/04/25 07:01:00.000   47.447036057   19.216764090   196.7040   2   9   0.2588   0.2977   0.4196  -0.1398   0.1214  -0.1746   0.00    0.0
2022/04/25 07:01:01.000   47.447036167   19.216764058   196.6934   2   9   0.2526   0.2933   0.4101  -0.1356   0.1172  -0.1705   0.00    0.0
2022/04/25 07:01:02.000   47.447036139   19.216764074   196.7073   2   9   0.2466   0.2892   0.4011  -0.1317   0.1132  -0.1667   0.00    0.0
2022/04/25 07:01:03.000   47.447036076   19.216764200   196.7220   2   9   0.2411   0.2852   0.3925  -0.1281   0.1095  -0.1630   0.00    1.5
2022/04/25 07:01:04.000   47.447036076   19.216764122   196.7167   2   9   0.2358   0.2814   0.3844  -0.1246   0.1059  -0.1596   0.00    1.4
2022/04/25 07:01:05.000   47.447035889   19.216764246   196.7325   2   9   0.2308   0.2777   0.3767  -0.1213   0.1025  -0.1563   0.00    1.3
2022/04/25 07:01:06.000   47.447035991   19.216764208   196.7178   2   9   0.2260   0.2742   0.3693  -0.1182   0.0993  -0.1532   0.00    1.4
2022/04/25 07:01:07.000   47.447035952   19.216764342   196.7214   2   9   0.2214   0.2708   0.3622  -0.1152   0.0962  -0.1502   0.00    1.3
2022/04/25 07:01:08.000   47.447035854   19.216764393   196.7188   2   9   0.2171   0.2676   0.3555  -0.1123   0.0932  -0.1474   0.00    1.3
2022/04/25 07:01:09.000   47.447035803   19.216764414   196.7138   2   9   0.2129   0.2644   0.3490  -0.1096   0.0903  -0.1447   0.00    1.3
2022/04/25 07:01:10.000   47.447035790   19.216764460   196.7100   2   9   0.2089   0.2613   0.3428  -0.1070   0.0876  -0.1420   0.00    1.2
2022/04/25 07:01:11.000   47.447035803   19.216764447   196.7055   2   9   0.2051   0.2584   0.3368  -0.1045   0.0849  -0.1395   0.00    1.2
2022/04/25 07:01:12.000   47.447035758   19.216764480   196.7025   2   9   0.2014   0.2555   0.3310  -0.1020   0.0823  -0.1371   0.00    1.2
2022/04/25 07:01:13.000   47.447035730   19.216764460   196.7016   2   9   0.1978   0.2528   0.3254  -0.0997   0.0799  -0.1348   0.00    1.1
2022/04/25 07:01:14.000   47.447035778   19.216764403   196.6948   2   9   0.1944   0.2501   0.3200  -0.0975   0.0774  -0.1325   0.00    1.1
2022/04/25 07:01:15.000   47.447035802   19.216764347   196.6835   2   9   0.1911   0.2475   0.3148  -0.0953   0.0751  -0.1303   0.00    1.1
2022/04/25 07:01:16.000   47.447035847   19.216764305   196.6934   2   9   0.1879   0.2449   0.3098  -0.0932   0.0728  -0.1282   0.00    1.1
2022/04/25 07:01:17.000   47.447035875   19.216764308   196.6773   2   9   0.1848   0.2425   0.3049  -0.0911   0.0705  -0.1262   0.00    1.1
2022/04/25 07:01:18.000   47.447035833   19.216764272   196.6894   2   9   0.1818   0.2401   0.3002  -0.0892   0.0683  -0.1242   0.00    1.1
2022/04/25 07:01:19.000   47.447035895   19.216764236   196.6810   2   9   0.1789   0.2378   0.2956  -0.0873   0.0662  -0.1223   0.00    1.1
2022/04/25 07:01:20.000   47.447035778   19.216764358   196.6744   2   9   0.1761   0.2355   0.2911  -0.0854   0.0641  -0.1204   0.00    1.2
2022/04/25 07:01:21.000   47.447035775   19.216764359   196.6706   2   9   0.1734   0.2333   0.2868  -0.0836   0.0621  -0.1186   0.00    1.3
2022/04/25 07:01:22.000   47.447035832   19.216764318   196.6746   2   9   0.1707   0.2311   0.2825  -0.0818   0.0600  -0.1169   0.00    1.3
2022/04/25 07:01:23.000   47.447035895   19.216764254   196.6686   2   9   0.1681   0.2291   0.2784  -0.0801   0.0581  -0.1152   0.00    1.3
2022/04/25 07:01:24.000   47.447035929   19.216764207   196.6584   2   9   0.1656   0.2270   0.2745  -0.0784   0.0561  -0.1135   0.00    1.4
2022/04/25 07:01:25.000   47.447035884   19.216764233   196.6641   2   9   0.1632   0.2250   0.2706  -0.0768   0.0542  -0.1119   0.00    1.3
2022/04/25 07:01:26.000   47.447035962   19.216764223   196.6495   2   9   0.1608   0.2231   0.2668  -0.0752   0.0523  -0.1104   0.00    1.3
2022/04/25 07:01:27.000   47.447035981   19.216764276   196.6492   2   9   0.1585   0.2212   0.2631  -0.0737   0.0504  -0.1088   0.00    1.3
2022/04/25 07:01:30.000   47.447035962   19.216764281   196.6349   2   9   0.1560   0.2193   0.2591  -0.0720   0.0482  -0.1072   0.00    1.3
2022/04/25 07:01:31.000   47.447035960   19.216764259   196.6054   2   9   0.1537   0.2175   0.2554  -0.0704   0.0461  -0.1057   1.00    1.3
2022/04/25 07:01:35.000   47.447036014   19.216764161   196.5840   2   9   0.1511   0.2156   0.2512  -0.0685   0.0435  -0.1039   0.00    1.4
2022/04/25 07:01:36.000   47.447035989   19.216764137   196.5778   2   9   0.1486   0.2138   0.2472  -0.0667   0.0410  -0.1023   0.00    1.4
2022/04/25 07:01:37.000   47.447035979   19.216764134   196.5786   2   9   0.1461   0.2120   0.2434  -0.0650   0.0384  -0.1007   0.00    1.3
2022/04/25 07:01:38.000   47.447036046   19.216764059   196.5704   2   9   0.1438   0.2103   0.2396  -0.0633   0.0359  -0.0992   0.00    1.3
2022/04/25 07:01:39.000   47.447036049   19.216764047   196.5682   2   9   0.1415   0.2086   0.2360  -0.0616   0.0334  -0.0977   0.00    1.3
2022/04/25 07:01:40.000   47.447036050   19.216764074   196.5588   2   9   0.1394   0.2070   0.2326  -0.0600   0.0308  -0.0963   0.00    1.3
2022/04/25 07:01:41.000   47.447036151   19.216764025   196.5491   2   9   0.1373   0.2054   0.2292  -0.0585   0.0281  -0.0949   0.00    1.3
2022/04/25 07:01:42.000   47.447036186   19.216763986   196.5504   2   9   0.1352   0.2038   0.2259  -0.0570   0.0254  -0.0935   0.00    1.2
2022/04/25 07:01:43.000   47.447036179   19.216763965   196.5461   2   9   0.1332   0.2023   0.2227  -0.0555   0.0226  -0.0922   0.00    1.2
2022/04/25 07:01:44.000   47.447036240   19.216763903   196.5375   2   9   0.1313   0.2008   0.2196  -0.0541   0.0194  -0.0909   0.00    1.2
2022/04/25 07:01:45.000   47.447036234   19.216763946   196.5410   2   9   0.1295   0.1993   0.2166  -0.0528   0.0160  -0.0897   0.00    1.2
2022/04/25 07:01:46.000   47.447036258   19.216763902   196.5400   2   9   0.1276   0.1978   0.2137  -0.0514   0.0117  -0.0885   0.00    1.2
2022/04/25 07:01:47.000   47.447036256   19.216763831   196.5296   2   9   0.1259   0.1964   0.2109  -0.0501   0.0052  -0.0874   0.00    1.2
2022/04/25 07:01:48.000   47.447036305   19.216763772   196.5246   2   9   0.1242   0.1950   0.2081  -0.0488  -0.0087  -0.0862   0.00    1.1
2022/04/25 07:01:49.000   47.447036301   19.216763807   196.5234   2   9   0.1225   0.1937   0.2054  -0.0476  -0.0132  -0.0851   0.00    1.1
2022/04/25 07:01:50.000   47.447036317   19.216763786   196.5187   2   9   0.1209   0.1924   0.2028  -0.0463  -0.0164  -0.0841   0.00    1.1
2022/04/25 07:01:51.000   47.447036342   19.216763785   196.5239   2   9   0.1193   0.1911   0.2002  -0.0451  -0.0189  -0.0830   0.00    1.1
2022/04/25 07:01:52.000   47.447036317   19.216763827   196.5223   2   9   0.1179   0.1898   0.1978  -0.0440  -0.0209  -0.0821   1.00    1.1
2022/04/25 07:01:54.000   47.447036288   19.216763878   196.5324   2   8   0.1164   0.1885   0.1953  -0.0430  -0.0233  -0.0809   0.00    1.0
2022/04/25 07:01:55.000   47.447036301   19.216763876   196.5296   2   8   0.1149   0.1873   0.1928  -0.0418  -0.0250  -0.0798   0.00    1.0
2022/04/25 07:01:56.000   47.447036343   19.216763905   196.5271   2   8   0.1134   0.1861   0.1905  -0.0407  -0.0266  -0.0788   0.00    1.0
2022/04/25 07:01:57.000   47.447036357   19.216763912   196.5187   2   8   0.1120   0.1849   0.1881  -0.0396  -0.0280  -0.0779   0.00    1.0
2022/04/25 07:01:58.000   47.447036349   19.216763893   196.5165   2   8   0.1106   0.1838   0.1859  -0.0385  -0.0293  -0.0769   0.00    1.0
2022/04/25 07:01:59.000   47.447036363   19.216763886   196.5108   2   8   0.1093   0.1826   0.1837  -0.0375  -0.0304  -0.0760   0.00    1.0
2022/04/25 07:02:00.000   47.447036367   19.216763892   196.5059   2   8   0.1079   0.1815   0.1815  -0.0364  -0.0315  -0.0751   0.00    1.0
2022/04/25 07:02:01.000   47.447036402   19.216763922   196.5056   2   8   0.1066   0.1804   0.1794  -0.0354  -0.0324  -0.0742   0.00    1.0
2022/04/25 07:02:02.000   47.447036401   19.216763975   196.5040   2   8   0.1054   0.1793   0.1773  -0.0344  -0.0333  -0.0734   0.00    1.0
2022/04/25 07:02:03.000   47.447036420   19.216763967   196.5010   2   8   0.1041   0.1782   0.1753  -0.0334  -0.0341  -0.0725   0.00    1.0
2022/04/25 07:02:04.000   47.447036441   19.216763965   196.5029   2   8   0.1029   0.1772   0.1733  -0.0324  -0.0349  -0.0717   0.00    1.0
2022/04/25 07:02:05.000   47.447036459   19.216764024   196.5014   2   8   0.1018   0.1761   0.1714  -0.0314  -0.0356  -0.0709   0.00    1.1
2022/04/25 07:02:06.000   47.447036480   19.216763998   196.5044   2   8   0.1006   0.1751   0.1695  -0.0304  -0.0363  -0.0701   0.00    1.1
2022/04/25 07:02:07.000   47.447036470   19.216764015   196.5053   2   8   0.0995   0.1741   0.1677  -0.0295  -0.0369  -0.0694   0.00    1.1
2022/04/25 07:02:08.000   47.447036499   19.216763951   196.5012   2   8   0.0984   0.1731   0.1658  -0.0285  -0.0375  -0.0686   0.00    1.1
2022/04/25 07:02:09.000   47.447036515   19.216763950   196.5026   2   8   0.0973   0.1722   0.1641  -0.0275  -0.0380  -0.0679   0.00    1.1
2022/04/25 07:02:10.000   47.447036486   19.216763962   196.5051   2   8   0.0962   0.1712   0.1623  -0.0266  -0.0385  -0.0672   0.00    1.1
2022/04/25 07:02:11.000   47.447036533   19.216763955   196.4990   2   8   0.0952   0.1703   0.1606  -0.0256  -0.0390  -0.0665   0.00    1.1
2022/04/25 07:02:12.000   47.447036464   19.216763979   196.5017   2   8   0.0942   0.1693   0.1589  -0.0247  -0.0394  -0.0658   0.00    1.2
2022/04/25 07:02:13.000   47.447036474   19.216764005   196.5037   2   8   0.0932   0.1684   0.1573  -0.0238  -0.0398  -0.0651   0.00    1.2
2022/04/25 07:02:14.000   47.447036482   19.216763958   196.4955   2   8   0.0922   0.1675   0.1557  -0.0228  -0.0402  -0.0645   0.00    1.1
2022/04/25 07:02:15.000   47.447036493   19.216763982   196.4906   2   8   0.0913   0.1666   0.1541  -0.0219  -0.0406  -0.0638   0.00    1.1
2022/04/25 07:02:16.000   47.447036464   19.216764006   196.4903   2   8   0.0903   0.1658   0.1525  -0.0209  -0.0409  -0.0632   0.00    1.1
2022/04/25 07:02:17.000   47.447036470   19.216764034   196.4921   2   8   0.0894   0.1649   0.1510  -0.0200  -0.0412  -0.0626   0.00    1.1
2022/04/25 07:02:18.000   47.447036495   19.216764047   196.4852   2   8   0.0885   0.1640   0.1495  -0.0190  -0.0415  -0.0620   0.00    1.1
2022/04/25 07:02:19.000   47.447036486   19.216764080   196.4833   2   8   0.0876   0.1632   0.1480  -0.0181  -0.0418  -0.0614   0.00    1.1
2022/04/25 07:02:20.000   47.447036508   19.216764090   196.4758   2   8   0.0867   0.1624   0.1466  -0.0171  -0.0421  -0.0608   0.00    1.0
2022/04/25 07:02:21.000   47.447036558   19.216764087   196.4693   2   8   0.0859   0.1616   0.1452  -0.0160  -0.0423  -0.0602   0.00    1.0
2022/04/25 07:02:22.000   47.447036517   19.216764158   196.4708   2   8   0.0850   0.1608   0.1438  -0.0150  -0.0426  -0.0596   0.00    1.0
2022/04/25 07:02:23.000   47.447036524   19.216764196   196.4701   2   8   0.0842   0.1600   0.1424  -0.0139  -0.0428  -0.0591   0.00    1.0
2022/04/25 07:02:24.000   47.447036521   19.216764193   196.4635   2   8   0.0834   0.1592   0.1411  -0.0128  -0.0430  -0.0585   0.00    1.0
2022/04/25 07:02:25.000   47.447036575   19.216764176   196.4635   2   8   0.0826   0.1584   0.1397  -0.0116  -0.0432  -0.0580   0.00    1.0
2022/04/25 07:02:26.000   47.447036636   19.216764155   196.4551   2   8   0.0818   0.1576   0.1384  -0.0104  -0.0434  -0.0575   0.00    1.0
2022/04/25 07:02:27.000   47.447036642   19.216764173   196.4466   2   8   0.0810   0.1569   0.1372  -0.0089  -0.0436  -0.0570   0.00    1.1
2022/04/25 07:02:28.000   47.447036665   19.216764130   196.4465   2   8   0.0803   0.1561   0.1359  -0.0074  -0.0437  -0.0564   0.00    1.1
2022/04/25 07:02:29.000   47.447036659   19.216764153   196.4460   2   8   0.0795   0.1554   0.1347  -0.0054  -0.0439  -0.0559   0.00    1.1
2022/04/25 07:02:30.000   47.447036662   19.216764142   196.4412   2   8   0.0788   0.1547   0.1334  -0.0022  -0.0440  -0.0555   0.00    1.1
2022/04/25 07:02:31.000   47.447036626   19.216764147   196.4425   2   8   0.0781   0.1540   0.1322   0.0043  -0.0442  -0.0550   0.00    1.1
2022/04/25 07:02:32.000   47.447036637   19.216764172   196.4407   2   8   0.0774   0.1533   0.1311   0.0064  -0.0443  -0.0545   0.00    1.1
2022/04/25 07:02:34.000   47.447036628   19.216764220   196.4337   2   8   0.0767   0.1525   0.1299   0.0080  -0.0444  -0.0540   0.00    1.2
2022/04/25 07:02:43.000   47.447036638   19.216764213   196.4291   2   8   0.0758   0.1518   0.1284   0.0099  -0.0448  -0.0534   0.00    1.2
2022/04/25 07:02:45.000   47.447036638   19.216764244   196.4240   2   8   0.0749   0.1511   0.1270   0.0113  -0.0451  -0.0529   0.00    1.2
2022/04/25 07:02:48.000   47.447036681   19.216764243   196.4224   2   8   0.0740   0.1504   0.1255   0.0126  -0.0453  -0.0523   0.00    1.2
2022/04/25 07:02:49.000   47.447036704   19.216764247   196.4194   2   8   0.0732   0.1497   0.1241   0.0137  -0.0455  -0.0517   0.00    1.2
2022/04/25 07:02:50.000   47.447036710   19.216764252   196.4182   2   8   0.0723   0.1490   0.1227   0.0147  -0.0457  -0.0512   0.00    1.2
2022/04/25 07:02:51.000   47.447036720   19.216764237   196.4115   2   8   0.0715   0.1482   0.1214   0.0155  -0.0459  -0.0506   0.00    1.3
2022/04/25 07:02:52.000   47.447036741   19.216764281   196.4184   2   8   0.0708   0.1476   0.1201   0.0163  -0.0460  -0.0501   0.00    1.3
2022/04/25 07:02:53.000   47.447036786   19.216764271   196.4118   2   8   0.0700   0.1469   0.1188   0.0170  -0.0462  -0.0496   0.00    1.3
2022/04/25 07:02:54.000   47.447036799   19.216764289   196.4159   2   8   0.0692   0.1462   0.1176   0.0176  -0.0463  -0.0491   0.00    1.3
2022/04/25 07:02:55.000   47.447036797   19.216764334   196.4126   2   8   0.0685   0.1455   0.1163   0.0182  -0.0464  -0.0486   0.00    1.3
2022/04/25 07:02:56.000   47.447036794   19.216764362   196.4105   2   8   0.0678   0.1449   0.1152   0.0187  -0.0465  -0.0482   0.00    1.3
2022/04/25 07:02:57.000   47.447036779   19.216764375   196.4100   2   8   0.0671   0.1442   0.1140   0.0192  -0.0466  -0.0477   0.00    1.3
2022/04/25 07:02:58.000   47.447036803   19.216764392   196.4129   2   8   0.0665   0.1436   0.1129   0.0197  -0.0466  -0.0473   0.00    1.4
2022/04/25 07:02:59.000   47.447036819   19.216764407   196.4104   2   8   0.0658   0.1429   0.1118   0.0201  -0.0467  -0.0468   0.00    1.4
2022/04/25 07:03:00.000   47.447036823   19.216764468   196.4132   2   8   0.0651   0.1423   0.1107   0.0205  -0.0468  -0.0464   0.00    1.4
2022/04/25 07:03:01.000   47.447036851   19.216764499   196.4092   2   8   0.0645   0.1417   0.1096   0.0208  -0.0468  -0.0460   0.00    1.4
2022/04/25 07:03:02.000   47.447036848   19.216764589   196.4128   2   8   0.0639   0.1411   0.1086   0.0211  -0.0469  -0.0456   0.00    1.4
2022/04/25 07:03:03.000   47.447036876   19.216764559   196.4080   2   8   0.0633   0.1405   0.1076   0.0215  -0.0469  -0.0452   0.00    1.4
2022/04/25 07:03:04.000   47.447036860   19.216764598   196.4050   2   8   0.0627   0.1399   0.1066   0.0217  -0.0469  -0.0448   0.00    1.4
2022/04/25 07:03:05.000   47.447036878   19.216764611   196.4057   2   8   0.0621   0.1393   0.1056   0.0220  -0.0469  -0.0444   0.00    1.4
2022/04/25 07:03:06.000   47.447036930   19.216764652   196.4049   2   8   0.0616   0.1387   0.1047   0.0223  -0.0470  -0.0440   0.00    1.5
2022/04/25 07:03:07.000   47.447036942   19.216764681   196.4061   2   8   0.0610   0.1381   0.1038   0.0225  -0.0470  -0.0437   0.00    1.5
2022/04/25 07:03:08.000   47.447036925   19.216764712   196.4040   2   8   0.0605   0.1376   0.1029   0.0227  -0.0470  -0.0433   0.00    1.5
2022/04/25 07:03:09.000   47.447036950   19.216764763   196.4058   2   8   0.0600   0.1370   0.1020   0.0230  -0.0470  -0.0429   0.00    1.5
2022/04/25 07:03:10.000   47.447036967   19.216764784   196.4039   2   8   0.0594   0.1365   0.1011   0.0231  -0.0470  -0.0426   0.00    1.5
2022/04/25 07:03:11.000   47.447037008   19.216764778   196.4016   2   8   0.0589   0.1359   0.1002   0.0233  -0.0469  -0.0423   0.00    1.5
2022/04/25 07:03:12.000   47.447036996   19.216764803   196.4007   2   8   0.0584   0.1354   0.0994   0.0235  -0.0469  -0.0419   0.00    1.5
2022/04/25 07:03:13.000   47.447037015   19.216764825   196.3967   2   8   0.0579   0.1348   0.0985   0.0237  -0.0469  -0.0416   0.00    1.5
2022/04/25 07:03:14.000   47.447037019   19.216764847   196.4024   2   8   0.0575   0.1343   0.0977   0.0238  -0.0469  -0.0413   0.00    1.5
2022/04/25 07:03:15.000   47.447037046   19.216764819   196.4014   2   8   0.0570   0.1337   0.0969   0.0239  -0.0469  -0.0410   0.00    1.5
2022/04/25 07:03:16.000   47.447037020   19.216764896   196.4000   2   8   0.0565   0.1332   0.0962   0.0241  -0.0468  -0.0406   0.00    1.5
2022/04/25 07:03:17.000   47.447037034   19.216764961   196.3995   2   8   0.0561   0.1327   0.0954   0.0242  -0.0468  -0.0403   0.00    1.5
2022/04/25 07:03:18.000   47.447037043   19.216764992   196.4010   2   8   0.0556   0.1322   0.0946   0.0243  -0.0468  -0.0400   0.00    1.5
2022/04/25 07:03:19.000   47.447037044   19.216765044   196.4033   2   8   0.0552   0.1317   0.0939   0.0245  -0.0467  -0.0397   0.00    1.5
2022/04/25 07:03:20.000   47.447037041   19.216765062   196.3996   2   8   0.0547   0.1312   0.0932   0.0245  -0.0467  -0.0395   0.00    1.5
2022/04/25 07:03:21.000   47.447037031   19.216765052   196.3969   2   8   0.0543   0.1307   0.0924   0.0247  -0.0466  -0.0392   0.00    1.6
2022/04/25 07:03:22.000   47.447037038   19.216765063   196.3991   2   8   0.0539   0.1302   0.0917   0.0248  -0.0466  -0.0389   0.00    1.6
2022/04/25 07:03:23.000   47.447037067   19.216765089   196.3985   2   8   0.0535   0.1297   0.0910   0.0248  -0.0466  -0.0386   0.00    1.6
2022/04/25 07:03:24.000   47.447037084   19.216765152   196.3974   2   8   0.0531   0.1292   0.0903   0.0249  -0.0465  -0.0383   0.00    1.6
2022/04/25 07:03:25.000   47.447037073   19.216765205   196.3968   2   8   0.0527   0.1287   0.0897   0.0250  -0.0465  -0.0381   0.00    1.6
2022/04/25 07:03:26.000   47.447037072   19.216765235   196.3985   2   8   0.0523   0.1283   0.0890   0.0251  -0.0464  -0.0378   0.00    1.6
2022/04/25 07:03:27.000   47.447037097   19.216765240   196.3931   2   8   0.0519   0.1278   0.0884   0.0251  -0.0463  -0.0376   0.00    1.6
2022/04/25 07:03:28.000   47.447037107   19.216765288   196.3921   2   8   0.0515   0.1273   0.0877   0.0252  -0.0463  -0.0373   0.00    1.6
2022/04/25 07:03:29.000   47.447037096   19.216765326   196.3940   2   8   0.0512   0.1268   0.0871   0.0253  -0.0462  -0.0371   0.00    1.6
2022/04/25 07:03:30.000   47.447037119   19.216765353   196.3878   2   8   0.0508   0.1264   0.0864   0.0253  -0.0462  -0.0368   0.00    1.6
2022/04/25 07:03:31.000   47.447037131   19.216765388   196.3878   2   8   0.0504   0.1259   0.0858   0.0254  -0.0461  -0.0366   0.00    1.6
2022/04/25 07:03:32.000   47.447037127   19.216765400   196.3868   2   8   0.0501   0.1255   0.0852   0.0254  -0.0460  -0.0363   0.00    1.6
2022/04/25 07:03:33.000   47.447037110   19.216765457   196.3927   2   8   0.0497   0.1250   0.0846   0.0254  -0.0460  -0.0361   0.00    1.6
2022/04/25 07:03:34.000   47.447037156   19.216765504   196.3869   2   8   0.0494   0.1246   0.0841   0.0255  -0.0459  -0.0358   0.00    1.6
2022/04/25 07:03:35.000   47.447037139   19.216765590   196.3853   2   8   0.0490   0.1242   0.0835   0.0255  -0.0458  -0.0356   0.00    1.6
2022/04/25 07:03:36.000   47.447037161   19.216765594   196.3873   2   8   0.0487   0.1237   0.0829   0.0255  -0.0458  -0.0354   0.00    1.6
2022/04/25 07:03:37.000   47.447037157   19.216765637   196.3841   2   8   0.0484   0.1233   0.0823   0.0256  -0.0457  -0.0352   0.00    1.6
2022/04/25 07:03:38.000   47.447037161   19.216765606   196.3841   2   8   0.0480   0.1229   0.0818   0.0256  -0.0456  -0.0349   0.00    1.5
2022/04/25 07:03:39.000   47.447037157   19.216765682   196.3824   2   8   0.0477   0.1224   0.0812   0.0256  -0.0456  -0.0347   0.00    1.5
2022/04/25 07:03:40.000   47.447037137   19.216765688   196.3782   2   8   0.0474   0.1220   0.0807   0.0256  -0.0455  -0.0345   0.00    1.5
2022/04/25 07:03:41.000   47.447037140   19.216765693   196.3850   2   8   0.0471   0.1216   0.0802   0.0257  -0.0454  -0.0343   0.00    1.5
2022/04/25 07:03:42.000   47.447037135   19.216765703   196.3839   2   8   0.0468   0.1212   0.0796   0.0257  -0.0453  -0.0341   0.00    1.5
2022/04/25 07:03:43.000   47.447037135   19.216765737   196.3827   2   8   0.0465   0.1208   0.0791   0.0257  -0.0453  -0.0339   0.00    1.5
2022/04/25 07:03:44.000   47.447037163   19.216765754   196.3807   2   8   0.0462   0.1204   0.0786   0.0257  -0.0452  -0.0337   0.00    1.5
2022/04/25 07:03:45.000   47.447037141   19.216765756   196.3803   2   8   0.0459   0.1200   0.0781   0.0257  -0.0451  -0.0335   0.00    1.5
2022/04/25 07:03:46.000   47.447037156   19.216765749   196.3795   2   8   0.0456   0.1196   0.0776   0.0257  -0.0450  -0.0333   0.00    1.4
2022/04/25 07:03:47.000   47.447037124   19.216765775   196.3811   2   8   0.0453   0.1192   0.0771   0.0257  -0.0450  -0.0331   0.00    1.4
2022/04/25 07:03:48.000   47.447037149   19.216765730   196.3787   2   8   0.0450   0.1188   0.0766   0.0257  -0.0449  -0.0329   0.00    1.4
2022/04/25 07:03:49.000   47.447037187   19.216765793   196.3767   2   8   0.0447   0.1184   0.0762   0.0257  -0.0448  -0.0327   0.00    1.4
2022/04/25 07:03:50.001   47.447037174   19.216765804   196.3756   2   8   0.0445   0.1180   0.0757   0.0257  -0.0447  -0.0325   0.00    1.4
2022/04/25 07:03:51.000   47.447037163   19.216765830   196.3761   2   8   0.0442   0.1176   0.0752   0.0257  -0.0447  -0.0323   0.00    1.4
2022/04/25 07:03:52.000   47.447037174   19.216765806   196.3739   2   8   0.0439   0.1172   0.0747   0.0257  -0.0446  -0.0321   0.00    1.4
2022/04/25 07:03:53.000   47.447037167   19.216765803   196.3716   2   8   0.0437   0.1168   0.0743   0.0257  -0.0445  -0.0320   0.00    1.4
2022/04/25 07:03:54.000   47.447037157   19.216765840   196.3695   2   8   0.0434   0.1165   0.0738   0.0257  -0.0444  -0.0318   0.00    1.4
2022/04/25 07:03:55.000   47.447037164   19.216765873   196.3694   2   8   0.0431   0.1161   0.0734   0.0257  -0.0443  -0.0316   0.00    1.3
2022/04/25 07:03:56.000   47.447037136   19.216765898   196.3705   2   8   0.0429   0.1157   0.0730   0.0257  -0.0443  -0.0314   0.00    1.3
2022/04/25 07:03:57.000   47.447037161   19.216765876   196.3670   2   8   0.0426   0.1153   0.0725   0.0257  -0.0442  -0.0312   0.00    1.3
2022/04/25 07:03:58.000   47.447037133   19.216765894   196.3674   2   8   0.0424   0.1150   0.0721   0.0257  -0.0441  -0.0311   0.00    1.3
2022/04/25 07:03:59.000   47.447037136   19.216765868   196.3653   2   8   0.0421   0.1146   0.0717   0.0257  -0.0440  -0.0309   0.00    1.3
2022/04/25 07:04:00.000   47.447037142   19.216765878   196.3646   2   8   0.0419   0.1142   0.0712   0.0256  -0.0439  -0.0307   0.00    1.3
2022/04/25 07:04:01.000   47.447037143   19.216765891   196.3652   2   8   0.0416   0.1139   0.0708   0.0256  -0.0439  -0.0306   0.00    1.3
2022/04/25 07:04:02.000   47.447037155   19.216765904   196.3643   2   8   0.0414   0.1135   0.0704   0.0256  -0.0438  -0.0304   0.00    1.3
2022/04/25 07:04:03.000   47.447037171   19.216765900   196.3624   2   8   0.0411   0.1132   0.0700   0.0256  -0.0437  -0.0302   0.00    1.3
2022/04/25 07:04:04.000   47.447037192   19.216765928   196.3654   2   8   0.0409   0.1128   0.0696   0.0256  -0.0436  -0.0301   0.00    1.3
2022/04/25 07:04:05.000   47.447037179   19.216765920   196.3623   2   8   0.0407   0.1125   0.0692   0.0256  -0.0435  -0.0299   0.00    1.2
2022/04/25 07:04:06.000   47.447037184   19.216765974   196.3635   2   8   0.0405   0.1121   0.0688   0.0255  -0.0434  -0.0298   0.00    1.2
2022/04/25 07:04:07.000   47.447037183   19.216765966   196.3600   2   8   0.0402   0.1118   0.0684   0.0255  -0.0434  -0.0296   0.00    1.2
2022/04/25 07:04:08.000   47.447037187   19.216765983   196.3573   2   8   0.0400   0.1114   0.0681   0.0255  -0.0433  -0.0295   0.00    1.2
2022/04/25 07:04:09.000   47.447037213   19.216765994   196.3555   2   8   0.0398   0.1111   0.0677   0.0255  -0.0432  -0.0293   0.00    1.2
2022/04/25 07:04:10.000   47.447037202   19.216766000   196.3577   2   8   0.0396   0.1108   0.0673   0.0254  -0.0431  -0.0291   0.00    1.2
2022/04/25 07:04:11.000   47.447037244   19.216766020   196.3503   2   8   0.0394   0.1104   0.0669   0.0254  -0.0430  -0.0290   0.00    1.2
2022/04/25 07:04:12.000   47.447037242   19.216766000   196.3481   2   8   0.0392   0.1101   0.0666   0.0254  -0.0429  -0.0288   0.00    1.2
2022/04/25 07:04:13.000   47.447037241   19.216766046   196.3494   2   8   0.0389   0.1098   0.0662   0.0254  -0.0429  -0.0287   0.00    1.2
2022/04/25 07:04:14.000   47.447037248   19.216766054   196.3487   2   8   0.0387   0.1094   0.0659   0.0253  -0.0428  -0.0286   0.00    1.2
2022/04/25 07:04:15.000   47.447037276   19.216766067   196.3452   2   8   0.0385   0.1091   0.0655   0.0253  -0.0427  -0.0284   0.00    1.2
2022/04/25 07:04:16.000   47.447037278   19.216766055   196.3477   2   8   0.0383   0.1088   0.0651   0.0253  -0.0426  -0.0283   0.00    1.2
2022/04/25 07:04:17.000   47.447037298   19.216766060   196.3461   2   8   0.0381   0.1085   0.0648   0.0253  -0.0425  -0.0281   0.00    1.2
2022/04/25 07:04:18.000   47.447037303   19.216766079   196.3486   2   8   0.0379   0.1082   0.0645   0.0252  -0.0424  -0.0280   0.00    1.2
2022/04/25 07:04:19.000   47.447037277   19.216766123   196.3437   2   8   0.0377   0.1078   0.0641   0.0252  -0.0424  -0.0278   0.00    1.1
2022/04/25 07:04:20.000   47.447037282   19.216766121   196.3453   2   8   0.0375   0.1075   0.0638   0.0252  -0.0423  -0.0277   0.00    1.1
2022/04/25 07:04:21.000   47.447037291   19.216766142   196.3434   2   8   0.0373   0.1072   0.0634   0.0251  -0.0422  -0.0276   0.00    1.1
2022/04/25 07:04:22.000   47.447037289   19.216766163   196.3425   2   8   0.0371   0.1069   0.0631   0.0251  -0.0421  -0.0274   0.00    1.1
2022/04/25 07:04:23.000   47.447037258   19.216766173   196.3435   2   8   0.0370   0.1066   0.0628   0.0251  -0.0420  -0.0273   0.00    1.1
2022/04/25 07:04:24.000   47.447037273   19.216766202   196.3397   2   8   0.0368   0.1063   0.0625   0.0250  -0.0419  -0.0272   0.00    1.1
2022/04/25 07:04:25.000   47.447037251   19.216766184   196.3394   2   8   0.0366   0.1060   0.0621   0.0250  -0.0418  -0.0270   0.00    1.1
2022/04/25 07:04:26.000   47.447037266   19.216766191   196.3374   2   8   0.0364   0.1057   0.0618   0.0250  -0.0418  -0.0269   0.00    1.1
2022/04/25 07:04:27.000   47.447037241   19.216766168   196.3380   2   8   0.0362   0.1054   0.0615   0.0249  -0.0417  -0.0268   0.00    1.1
2022/04/25 07:04:28.000   47.447037236   19.216766169   196.3375   2   8   0.0360   0.1051   0.0612   0.0249  -0.0416  -0.0267   0.00    1.1
2022/04/25 07:04:29.000   47.447037247   19.216766164   196.3378   2   8   0.0359   0.1048   0.0609   0.0249  -0.0415  -0.0266   0.00    1.1
2022/04/25 07:04:30.000   47.447037256   19.216766176   196.3336   2   8   0.0357   0.1045   0.0606   0.0248  -0.0414  -0.0264   0.00    1.0
2022/04/25 07:04:31.000   47.447037267   19.216766216   196.3340   2   8   0.0355   0.1042   0.0603   0.0248  -0.0413  -0.0263   0.00    1.0
2022/04/25 07:04:32.000   47.447037251   19.216766240   196.3326   2   8   0.0353   0.1039   0.0600   0.0248  -0.0413  -0.0262   0.00    1.0
2022/04/25 07:04:33.000   47.447037263   19.216766231   196.3333   2   8   0.0352   0.1036   0.0597   0.0247  -0.0412  -0.0260   0.00    1.0
2022/04/25 07:04:34.000   47.447037271   19.216766218   196.3323   2   8   0.0350   0.1033   0.0594   0.0247  -0.0411  -0.0259   0.00    1.0
2022/04/25 07:04:35.000   47.447037263   19.216766191   196.3309   2   8   0.0348   0.1030   0.0591   0.0246  -0.0410  -0.0258   0.00    1.0
2022/04/25 07:04:36.000   47.447037258   19.216766184   196.3316   2   8   0.0347   0.1027   0.0588   0.0246  -0.0409  -0.0257   0.00    1.0
2022/04/25 07:04:37.000   47.447037267   19.216766196   196.3308   2   8   0.0345   0.1024   0.0586   0.0246  -0.0409  -0.0256   0.00    1.0
2022/04/25 07:04:38.000   47.447037247   19.216766201   196.3310   2   8   0.0343   0.1022   0.0583   0.0245  -0.0408  -0.0255   0.00    1.0
2022/04/25 07:04:39.000   47.447037252   19.216766205   196.3285   2   8   0.0342   0.1019   0.0580   0.0245  -0.0407  -0.0253   0.00    1.0
2022/04/25 07:04:40.000   47.447037249   19.216766225   196.3296   2   8   0.0340   0.1016   0.0577   0.0244  -0.0406  -0.0252   0.00    1.0
2022/04/25 07:04:41.000   47.447037264   19.216766222   196.3318   2   8   0.0339   0.1013   0.0575   0.0244  -0.0405  -0.0251   0.00    1.0
2022/04/25 07:04:42.000   47.447037236   19.216766228   196.3317   2   8   0.0337   0.1010   0.0572   0.0244  -0.0404  -0.0250   0.00    1.0
2022/04/25 07:04:43.000   47.447037262   19.216766210   196.3295   2   8   0.0335   0.1008   0.0569   0.0243  -0.0404  -0.0249   0.00    1.0
2022/04/25 07:04:44.000   47.447037260   19.216766197   196.3282   2   8   0.0334   0.1005   0.0567   0.0243  -0.0403  -0.0248   0.00    1.0
2022/04/25 07:04:45.000   47.447037250   19.216766187   196.3330   2   8   0.0332   0.1002   0.0564   0.0242  -0.0402  -0.0247   0.00    1.0
2022/04/25 07:04:46.000   47.447037242   19.216766196   196.3324   2   8   0.0331   0.1000   0.0561   0.0242  -0.0401  -0.0246   0.00    1.0
2022/04/25 07:04:47.000   47.447037270   19.216766196   196.3336   2   8   0.0329   0.0997   0.0559   0.0242  -0.0400  -0.0245   0.00    1.0
2022/04/25 07:04:48.000   47.447037244   19.216766179   196.3347   2   8   0.0328   0.0994   0.0556   0.0241  -0.0400  -0.0244   0.00    1.0
2022/04/25 07:04:49.000   47.447037247   19.216766172   196.3334   2   8   0.0326   0.0992   0.0554   0.0241  -0.0399  -0.0243   0.00    1.0
2022/04/25 07:04:50.000   47.447037246   19.216766128   196.3363   2   8   0.0325   0.0989   0.0551   0.0240  -0.0398  -0.0242   0.00    1.0
2022/04/25 07:04:51.000   47.447037251   19.216766140   196.3381   2   8   0.0324   0.0986   0.0549   0.0240  -0.0397  -0.0240   0.00    1.0
2022/04/25 07:04:52.000   47.447037236   19.216766128   196.3373   2   8   0.0322   0.0984   0.0546   0.0240  -0.0396  -0.0240   0.00    1.0
2022/04/25 07:04:53.000   47.447037230   19.216766117   196.3396   2   8   0.0321   0.0981   0.0544   0.0239  -0.0395  -0.0238   0.00    1.0
2022/04/25 07:04:54.000   47.447037248   19.216766094   196.3410   2   8   0.0319   0.0978   0.0541   0.0239  -0.0395  -0.0237   0.00    1.0
2022/04/25 07:04:55.000   47.447037242   19.216766096   196.3416   2   8   0.0318   0.0976   0.0539   0.0238  -0.0394  -0.0236   0.00    1.0
2022/04/25 07:04:56.000   47.447037225   19.216766110   196.3379   2   8   0.0317   0.0973   0.0536   0.0238  -0.0393  -0.0236   0.00    1.0
2022/04/25 07:04:57.000   47.447037228   19.216766086   196.3385   2   8   0.0315   0.0971   0.0534   0.0237  -0.0392  -0.0234   0.00    1.0
2022/04/25 07:04:58.000   47.447037202   19.216766078   196.3416   2   8   0.0314   0.0968   0.0532   0.0237  -0.0391  -0.0233   0.00    1.0
2022/04/25 07:04:59.000   47.447037223   19.216766048   196.3387   2   8   0.0313   0.0966   0.0529   0.0237  -0.0391  -0.0233   0.00    1.0
2022/04/25 07:05:00.000   47.447037226   19.216766040   196.3380   2   8   0.0311   0.0963   0.0527   0.0236  -0.0390  -0.0231   0.00    1.0
2022/04/25 07:05:01.000   47.447037225   19.216766016   196.3381   2   8   0.0310   0.0961   0.0525   0.0236  -0.0389  -0.0231   0.00    1.0
2022/04/25 07:05:02.000   47.447037261   19.216765966   196.3374   2   8   0.0308   0.0958   0.0523   0.0235  -0.0388  -0.0230   0.00    1.0
2022/04/25 07:05:03.000   47.447037215   19.216765986   196.3366   2   8   0.0307   0.0956   0.0520   0.0235  -0.0388  -0.0229   0.00    1.0
2022/04/25 07:05:04.000   47.447037205   19.216766004   196.3408   2   8   0.0306   0.0953   0.0518   0.0234  -0.0387  -0.0228   0.00    1.0
2022/04/25 07:05:05.000   47.447037187   19.216765975   196.3383   2   8   0.0305   0.0951   0.0516   0.0234  -0.0386  -0.0227   0.00    1.0
2022/04/25 07:05:06.000   47.447037198   19.216765952   196.3394   2   8   0.0303   0.0949   0.0514   0.0234  -0.0385  -0.0226   0.00    1.0
2022/04/25 07:05:07.000   47.447037178   19.216765964   196.3363   2   8   0.0302   0.0946   0.0511   0.0233  -0.0384  -0.0225   0.00    1.0
2022/04/25 07:05:08.000   47.447037172   19.216765950   196.3386   2   8   0.0301   0.0944   0.0509   0.0233  -0.0383  -0.0224   0.00    1.0
2022/04/25 07:05:09.000   47.447037185   19.216765953   196.3429   2   8   0.0300   0.0941   0.0507   0.0232  -0.0383  -0.0223   0.00    1.0
2022/04/25 07:05:10.000   47.447037196   19.216765956   196.3399   2   8   0.0298   0.0939   0.0505   0.0232  -0.0382  -0.0222   0.00    1.0
2022/04/25 07:05:11.000   47.447037179   19.216765956   196.3371   2   8   0.0297   0.0936   0.0503   0.0231  -0.0381  -0.0221   0.00    1.0
2022/04/25 07:05:12.000   47.447037165   19.216765984   196.3401   2   8   0.0296   0.0934   0.0501   0.0231  -0.0380  -0.0221   0.00    1.0
2022/04/25 07:05:13.000   47.447037199   19.216765939   196.3381   2   8   0.0295   0.0932   0.0499   0.0230  -0.0380  -0.0220   0.00    1.0
2022/04/25 07:05:14.000   47.447037182   19.216765975   196.3403   2   8   0.0294   0.0929   0.0497   0.0230  -0.0379  -0.0219   0.00    1.0
2022/04/25 07:05:15.000   47.447037176   19.216765965   196.3399   2   8   0.0293   0.0927   0.0495   0.0230  -0.0378  -0.0218   0.00    1.0
2022/04/25 07:05:16.000   47.447037172   19.216765969   196.3388   2   8   0.0291   0.0925   0.0493   0.0229  -0.0377  -0.0217   0.00    1.0
2022/04/25 07:05:17.000   47.447037183   19.216765992   196.3418   2   8   0.0290   0.0923   0.0491   0.0229  -0.0376  -0.0216   0.00    1.0
2022/04/25 07:05:18.000   47.447037170   19.216765986   196.3391   2   8   0.0289   0.0920   0.0489   0.0228  -0.0376  -0.0215   0.00    1.0
2022/04/25 07:05:19.000   47.447037165   19.216766016   196.3367   2   8   0.0288   0.0918   0.0487   0.0228  -0.0375  -0.0215   0.00    1.0
2022/04/25 07:05:20.000   47.447037169   19.216765993   196.3402   2   8   0.0287   0.0916   0.0485   0.0227  -0.0374  -0.0214   0.00    1.0
2022/04/25 07:05:21.000   47.447037177   19.216765983   196.3424   2   8   0.0286   0.0913   0.0483   0.0227  -0.0374  -0.0213   0.00    1.0
2022/04/25 07:05:22.000   47.447037161   19.216766003   196.3418   2   8   0.0285   0.0911   0.0481   0.0226  -0.0373  -0.0212   0.00    1.0
2022/04/25 07:05:23.000   47.447037184   19.216766007   196.3400   2   8   0.0284   0.0909   0.0479   0.0226  -0.0372  -0.0211   0.00    1.0
2022/04/25 07:05:24.000   47.447037172   19.216766010   196.3388   2   8   0.0283   0.0907   0.0478   0.0225  -0.0371  -0.0211   1.00    1.0
2022/04/25 07:05:26.000   47.447037133   19.216766003   196.3408   2   8   0.0282   0.0904   0.0475   0.0225  -0.0370  -0.0210   0.00    1.0
2022/04/25 07:05:27.000   47.447037154   19.216765993   196.3390   2   8   0.0280   0.0902   0.0473   0.0225  -0.0370  -0.0209   0.00    1.0
2022/04/25 07:05:28.000   47.447037144   19.216766034   196.3412   2   8   0.0279   0.0900   0.0471   0.0224  -0.0369  -0.0208   0.00    1.0
2022/04/25 07:05:29.000   47.447037135   19.216766045   196.3400   2   8   0.0278   0.0898   0.0470   0.0224  -0.0368  -0.0207   0.00    1.0
2022/04/25 07:05:30.000   47.447037116   19.216766083   196.3423   2   8   0.0277   0.0896   0.0468   0.0223  -0.0368  -0.0206   0.00    1.0
2022/04/25 07:05:31.000   47.447037115   19.216766078   196.3420   2   8   0.0276   0.0894   0.0466   0.0223  -0.0367  -0.0206   0.00    1.0
2022/04/25 07:05:32.000   47.447037118   19.216766090   196.3410   2   8   0.0275   0.0891   0.0464   0.0222  -0.0366  -0.0205   0.00    1.0
2022/04/25 07:05:33.000   47.447037102   19.216766124   196.3425   2   8   0.0274   0.0889   0.0462   0.0222  -0.0365  -0.0204   0.00    1.0
2022/04/25 07:05:34.000   47.447037106   19.216766100   196.3464   2   8   0.0273   0.0887   0.0461   0.0221  -0.0364  -0.0203   0.00    1.0
2022/04/25 07:05:35.000   47.447037097   19.216766109   196.3410   2   8   0.0272   0.0885   0.0459   0.0221  -0.0364  -0.0203   0.00    1.0
2022/04/25 07:05:36.000   47.447037109   19.216766083   196.3442   2   8   0.0271   0.0883   0.0457   0.0220  -0.0363  -0.0202   0.00    1.0
2022/04/25 07:05:37.000   47.447037107   19.216766102   196.3442   2   8   0.0270   0.0881   0.0455   0.0220  -0.0362  -0.0201   0.00    1.0
2022/04/25 07:05:38.000   47.447037076   19.216766143   196.3435   2   8   0.0269   0.0878   0.0454   0.0220  -0.0361  -0.0201   0.00    1.0
2022/04/25 07:05:39.000   47.447037101   19.216766176   196.3410   2   8   0.0268   0.0876   0.0452   0.0219  -0.0361  -0.0200   0.00    1.0
2022/04/25 07:05:40.000   47.447037079   19.216766150   196.3441   2   8   0.0267   0.0874   0.0450   0.0219  -0.0360  -0.0199   0.00    1.0
2022/04/25 07:05:41.000   47.447037083   19.216766135   196.3414   2   8   0.0266   0.0872   0.0448   0.0218  -0.0359  -0.0198   0.00    1.0
2022/04/25 07:05:43.000   47.447037085   19.216766170   196.3456   2   8   0.0265   0.0870   0.0447   0.0218  -0.0359  -0.0198   0.00    1.0
2022/04/25 07:05:44.000   47.447037077   19.216766211   196.3471   2   8   0.0264   0.0868   0.0445   0.0217  -0.0358  -0.0197   0.00    1.0
2022/04/25 07:05:45.000   47.447037085   19.216766210   196.3453   2   8   0.0264   0.0866   0.0443   0.0217  -0.0357  -0.0196   0.00    1.0
2022/04/25 07:05:46.000   47.447037071   19.216766188   196.3468   2   8   0.0262   0.0864   0.0442   0.0217  -0.0357  -0.0195   0.00    1.0
2022/04/25 07:05:47.000   47.447037060   19.216766188   196.3484   2   8   0.0262   0.0862   0.0440   0.0216  -0.0356  -0.0195   0.00    1.0
2022/04/25 07:05:48.000   47.447037019   19.216766179   196.3516   2   8   0.0261   0.0860   0.0439   0.0216  -0.0355  -0.0194   0.00    1.0
2022/04/25 07:05:49.000   47.447037017   19.216766124   196.3524   2   8   0.0259   0.0858   0.0437   0.0215  -0.0354  -0.0193   0.00    1.0
2022/04/25 07:05:50.000   47.447037028   19.216766151   196.3540   2   8   0.0259   0.0856   0.0435   0.0215  -0.0354  -0.0192   0.00    1.1
2022/04/25 07:05:51.000   47.447037014   19.216766100   196.3538   2   8   0.0258   0.0854   0.0434   0.0214  -0.0353  -0.0192   0.00    1.1
2022/04/25 07:05:52.000   47.447037036   19.216766084   196.3522   2   8   0.0257   0.0852   0.0432   0.0214  -0.0352  -0.0191   0.00    1.1
2022/04/25 07:05:53.000   47.447037040   19.216766113   196.3547   2   8   0.0256   0.0850   0.0431   0.0213  -0.0351  -0.0190   0.00    1.1
2022/04/25 07:05:54.000   47.447037003   19.216766108   196.3562   2   8   0.0255   0.0848   0.0429   0.0213  -0.0351  -0.0190   0.00    1.1
2022/04/25 07:05:55.000   47.447036982   19.216766107   196.3560   2   8   0.0254   0.0846   0.0427   0.0212  -0.0350  -0.0189   0.00    1.1
2022/04/25 07:05:56.000   47.447037001   19.216766108   196.3579   2   8   0.0253   0.0844   0.0426   0.0212  -0.0349  -0.0189   0.00    1.1
2022/04/25 07:05:57.000   47.447037004   19.216766096   196.3616   2   8   0.0253   0.0842   0.0424   0.0211  -0.0349  -0.0188   0.00    1.1
2022/04/25 07:05:58.000   47.447036953   19.216766129   196.3604   2   8   0.0251   0.0840   0.0423   0.0211  -0.0348  -0.0187   0.00    1.1
2022/04/25 07:05:59.000   47.447036947   19.216766114   196.3592   2   8   0.0251   0.0838   0.0421   0.0210  -0.0347  -0.0187   0.00    1.1
2022/04/25 07:06:00.000   47.447036952   19.216766104   196.3640   2   8   0.0250   0.0836   0.0420   0.0210  -0.0346  -0.0186   0.00    1.1
2022/04/25 07:06:01.000   47.447036962   19.216766082   196.3645   2   8   0.0249   0.0834   0.0418   0.0210  -0.0346  -0.0185   0.00    1.1
2022/04/25 07:06:02.000   47.447036936   19.216766076   196.3626   2   8   0.0248   0.0832   0.0417   0.0209  -0.0345  -0.0185   0.00    1.1
2022/04/25 07:06:03.000   47.447036922   19.216766076   196.3679   2   8   0.0247   0.0830   0.0416   0.0209  -0.0344  -0.0184   0.00    1.1
2022/04/25 07:06:04.000   47.447036921   19.216766015   196.3675   2   8   0.0247   0.0829   0.0414   0.0208  -0.0344  -0.0183   0.00    1.1
2022/04/25 07:06:05.000   47.447036918   19.216766023   196.3717   2   8   0.0246   0.0827   0.0413   0.0208  -0.0343  -0.0183   0.00    1.1
2022/04/25 07:06:06.000   47.447036916   19.216766011   196.3744   2   8   0.0245   0.0825   0.0411   0.0208  -0.0342  -0.0182   0.00    1.1
2022/04/25 07:06:07.000   47.447036899   19.216766022   196.3735   2   8   0.0244   0.0823   0.0410   0.0207  -0.0342  -0.0182   0.00    1.1
2022/04/25 07:06:08.000   47.447036885   19.216766016   196.3803   2   8   0.0243   0.0821   0.0408   0.0206  -0.0341  -0.0181   0.00    1.1
2022/04/25 07:06:09.000   47.447036892   19.216766031   196.3723   2   8   0.0242   0.0819   0.0407   0.0206  -0.0340  -0.0180   0.00    1.1
2022/04/25 07:06:10.000   47.447036874   19.216766023   196.3778   2   8   0.0242   0.0817   0.0406   0.0206  -0.0340  -0.0180   0.00    1.1
2022/04/25 07:06:11.000   47.447036881   19.216766035   196.3802   2   8   0.0241   0.0815   0.0404   0.0205  -0.0339  -0.0179   0.00    1.1
2022/04/25 07:06:12.000   47.447036858   19.216766023   196.3806   2   8   0.0240   0.0814   0.0403   0.0205  -0.0338  -0.0178   0.00    1.1
2022/04/25 07:06:13.000   47.447036853   19.216766021   196.3804   2   8   0.0240   0.0812   0.0401   0.0204  -0.0337  -0.0178   0.00    1.1
2022/04/25 07:06:14.000   47.447036871   19.216765989   196.3800   2   8   0.0239   0.0810   0.0400   0.0204  -0.0337  -0.0177   0.00    1.1
2022/04/25 07:06:15.000   47.447036848   19.216766010   196.3856   2   8   0.0238   0.0808   0.0399   0.0203  -0.0336  -0.0177   0.00    1.1
2022/04/25 07:06:16.000   47.447036847   19.216766000   196.3825   2   8   0.0237   0.0806   0.0397   0.0203  -0.0336  -0.0176   0.00    1.1
2022/04/25 07:06:17.000   47.447036843   19.216766018   196.3837   2   8   0.0236   0.0804   0.0396   0.0203  -0.0335  -0.0175   0.00    1.1
2022/04/25 07:06:18.000   47.447036818   19.216765998   196.3844   2   8   0.0236   0.0803   0.0395   0.0202  -0.0334  -0.0175   0.00    1.1
2022/04/25 07:06:19.000   47.447036837   19.216765968   196.3858   2   8   0.0235   0.0801   0.0393   0.0202  -0.0333  -0.0174   0.00    1.1
2022/04/25 07:06:20.000   47.447036813   19.216766029   196.3891   2   8   0.0234   0.0799   0.0392   0.0201  -0.0333  -0.0174   0.00    1.1
2022/04/25 07:06:21.000   47.447036811   19.216766024   196.3898   2   8   0.0234   0.0797   0.0391   0.0201  -0.0332  -0.0173   0.00    1.1
2022/04/25 07:06:22.000   47.447036817   19.216765981   196.3884   2   8   0.0233   0.0796   0.0390   0.0200  -0.0331  -0.0173   0.00    1.1
2022/04/25 07:06:23.000   47.447036810   19.216766004   196.3903   2   8   0.0232   0.0794   0.0388   0.0200  -0.0331  -0.0172   0.00    1.1
2022/04/25 07:06:24.000   47.447036829   19.216766002   196.3891   2   8   0.0231   0.0792   0.0387   0.0199  -0.0330  -0.0172   0.00    1.1
2022/04/25 07:06:25.000   47.447036810   19.216766005   196.3939   2   8   0.0231   0.0790   0.0386   0.0199  -0.0329  -0.0171   0.00    1.1
2022/04/25 07:06:26.000   47.447036783   19.216766020   196.3939   2   8   0.0230   0.0789   0.0385   0.0198  -0.0329  -0.0170   0.00    1.1
2022/04/25 07:06:27.000   47.447036806   19.216765996   196.3940   2   8   0.0229   0.0787   0.0384   0.0198  -0.0328  -0.0170   0.00    1.1
2022/04/25 07:06:28.000   47.447036788   19.216766011   196.3943   2   8   0.0229   0.0785   0.0382   0.0198  -0.0327  -0.0169   0.00    1.1
2022/04/25 07:06:29.000   47.447036793   19.216766009   196.3972   2   8   0.0228   0.0783   0.0381   0.0197  -0.0327  -0.0169   0.00    1.2
2022/04/25 07:06:30.000   47.447036786   19.216766020   196.3986   2   8   0.0227   0.0782   0.0380   0.0197  -0.0326  -0.0168   0.00    1.2
2022/04/25 07:06:31.000   47.447036776   19.216766010   196.4026   2   8   0.0227   0.0780   0.0379   0.0196  -0.0325  -0.0167   0.00    1.2
2022/04/25 07:06:32.000   47.447036788   19.216766023   196.4023   2   8   0.0226   0.0778   0.0377   0.0196  -0.0325  -0.0167   0.00    1.2
2022/04/25 07:06:33.000   47.447036778   19.216766022   196.4039   2   8   0.0225   0.0777   0.0376   0.0195  -0.0324  -0.0166   0.00    1.2
2022/04/25 07:06:34.000   47.447036789   19.216766020   196.4052   2   8   0.0225   0.0775   0.0375   0.0195  -0.0324  -0.0166   0.00    1.2
2022/04/25 07:06:35.000   47.447036767   19.216766037   196.4079   2   8   0.0224   0.0773   0.0374   0.0195  -0.0323  -0.0165   0.00    1.2
2022/04/25 07:06:36.000   47.447036764   19.216766029   196.4093   2   8   0.0223   0.0772   0.0373   0.0194  -0.0322  -0.0165   0.00    1.2
2022/04/25 07:06:37.000   47.447036757   19.216766010   196.4129   2   8   0.0223   0.0770   0.0372   0.0194  -0.0322  -0.0164   0.00    1.2
2022/04/25 07:06:38.000   47.447036741   19.216766013   196.4117   2   8   0.0222   0.0768   0.0370   0.0193  -0.0321  -0.0164   0.00    1.2
2022/04/25 07:06:39.000   47.447036758   19.216765998   196.4123   2   8   0.0221   0.0767   0.0369   0.0193  -0.0320  -0.0163   0.00    1.2
2022/04/25 07:06:40.000   47.447036736   19.216766018   196.4159   2   8   0.0221   0.0765   0.0368   0.0192  -0.0320  -0.0163   0.00    1.2
2022/04/25 07:06:41.000   47.447036745   19.216766005   196.4177   2   8   0.0220   0.0763   0.0367   0.0192  -0.0319  -0.0162   0.00    1.2
2022/04/25 07:06:42.000   47.447036745   19.216766009   196.4157   2   8   0.0220   0.0762   0.0366   0.0192  -0.0318  -0.0162   0.00    1.2
2022/04/25 07:06:43.000   47.447036743   19.216766001   196.4208   2   8   0.0219   0.0760   0.0365   0.0191  -0.0318  -0.0161   0.00    1.2
2022/04/25 07:06:44.000   47.447036730   19.216766007   196.4170   2   8   0.0218   0.0759   0.0364   0.0191  -0.0317  -0.0161   0.00    1.2
2022/04/25 07:06:45.000   47.447036744   19.216766026   196.4195   2   8   0.0218   0.0757   0.0363   0.0190  -0.0317  -0.0160   0.00    1.2
2022/04/25 07:06:46.000   47.447036760   19.216765993   196.4209   2   8   0.0217   0.0755   0.0362   0.0190  -0.0316  -0.0160   0.00    1.2
2022/04/25 07:06:47.000   47.447036757   19.216765980   196.4237   2   8   0.0217   0.0754   0.0361   0.0189  -0.0315  -0.0159   0.00    1.2
2022/04/25 07:06:48.000   47.447036739   19.216765999   196.4262   2   8   0.0216   0.0752   0.0360   0.0189  -0.0315  -0.0159   0.00    1.2
2022/04/25 07:06:49.000   47.447036720   19.216766012   196.4277   2   8   0.0215   0.0751   0.0358   0.0189  -0.0314  -0.0159   0.00    1.2
2022/04/25 07:06:50.000   47.447036730   19.216765991   196.4276   2   8   0.0215   0.0749   0.0357   0.0188  -0.0314  -0.0158   0.00    1.2
2022/04/25 07:06:51.000   47.447036714   19.216765983   196.4325   2   8   0.0214   0.0747   0.0356   0.0188  -0.0313  -0.0157   0.00    1.2
2022/04/25 07:06:52.000   47.447036690   19.216765946   196.4331   2   8   0.0214   0.0746   0.0355   0.0187  -0.0312  -0.0157   0.00    1.2
2022/04/25 07:06:53.000   47.447036710   19.216765902   196.4333   2   8   0.0213   0.0744   0.0354   0.0187  -0.0312  -0.0156   0.00    1.2
2022/04/25 07:06:54.000   47.447036700   19.216765921   196.4354   2   8   0.0212   0.0743   0.0353   0.0187  -0.0311  -0.0156   0.00    1.2
2022/04/25 07:06:55.000   47.447036714   19.216765897   196.4330   2   8   0.0212   0.0741   0.0352   0.0186  -0.0310  -0.0155   0.00    1.3
2022/04/25 07:06:56.000   47.447036674   19.216765917   196.4419   2   8   0.0211   0.0740   0.0351   0.0186  -0.0310  -0.0155   0.00    1.3
2022/04/25 07:06:57.000   47.447036677   19.216765887   196.4404   2   8   0.0210   0.0738   0.0350   0.0185  -0.0309  -0.0155   0.00    1.3
2022/04/25 07:06:58.000   47.447036658   19.216765921   196.4412   2   8   0.0210   0.0737   0.0349   0.0185  -0.0309  -0.0154   0.00    1.3
2022/04/25 07:06:59.000   47.447036654   19.216765900   196.4415   2   8   0.0209   0.0735   0.0348   0.0184  -0.0308  -0.0154   0.00    1.3
2022/04/25 07:07:01.000   47.447036659   19.216765865   196.4459   2   8   0.0209   0.0734   0.0347   0.0184  -0.0308  -0.0153   0.00    1.3
2022/04/25 07:07:02.000   47.447036649   19.216765908   196.4481   2   8   0.0208   0.0732   0.0346   0.0183  -0.0307  -0.0153   0.00    1.3
2022/04/25 07:07:04.000   47.447036633   19.216765886   196.4513   2   8   0.0208   0.0730   0.0345   0.0183  -0.0306  -0.0152   0.00    1.3
2022/04/25 07:07:05.000   47.447036649   19.216765859   196.4528   2   8   0.0208   0.0729   0.0344   0.0183  -0.0306  -0.0152   0.00    1.3
2022/04/25 07:07:06.000   47.447036649   19.216765827   196.4541   2   8   0.0207   0.0727   0.0343   0.0182  -0.0305  -0.0151   0.00    1.3
2022/04/25 07:07:07.000   47.447036638   19.216765809   196.4581   2   8   0.0206   0.0726   0.0342   0.0182  -0.0305  -0.0151   0.00    1.3
2022/04/25 07:07:08.000   47.447036637   19.216765835   196.4591   2   8   0.0206   0.0724   0.0341   0.0182  -0.0304  -0.0151   0.00    1.3
2022/04/25 07:07:09.000   47.447036639   19.216765779   196.4611   2   8   0.0205   0.0723   0.0340   0.0181  -0.0303  -0.0150   0.00    1.3
2022/04/25 07:07:10.000   47.447036623   19.216765775   196.4652   2   8   0.0205   0.0721   0.0339   0.0181  -0.0303  -0.0149   0.00    1.3
2022/04/25 07:07:11.000   47.447036616   19.216765764   196.4687   2   8   0.0204   0.0720   0.0338   0.0180  -0.0302  -0.0149   0.00    1.3
2022/04/25 07:07:12.000   47.447036604   19.216765750   196.4711   2   8   0.0203   0.0718   0.0337   0.0180  -0.0302  -0.0149   0.00    1.3
2022/04/25 07:07:13.000   47.447036622   19.216765714   196.4693   2   8   0.0203   0.0717   0.0336   0.0179  -0.0301  -0.0148   0.00    1.3
2022/04/25 07:07:14.000   47.447036604   19.216765741   196.4721   2   8   0.0202   0.0715   0.0336   0.0179  -0.0300  -0.0148   0.00    1.4
2022/04/25 07:07:15.000   47.447036589   19.216765719   196.4775   2   8   0.0202   0.0714   0.0335   0.0179  -0.0300  -0.0147   0.00    1.4
2022/04/25 07:07:16.000   47.447036595   19.216765706   196.4773   2   8   0.0201   0.0713   0.0334   0.0178  -0.0299  -0.0147   0.00    1.4
2022/04/25 07:07:17.000   47.447036618   19.216765681   196.4792   2   8   0.0201   0.0711   0.0333   0.0178  -0.0299  -0.0147   0.00    1.4
2022/04/25 07:07:18.000   47.447036593   19.216765666   196.4819   2   8   0.0200   0.0710   0.0332   0.0178  -0.0298  -0.0146   0.00    1.4
2022/04/25 07:07:19.000   47.447036582   19.216765655   196.4869   2   8   0.0200   0.0708   0.0331   0.0177  -0.0298  -0.0146   0.00    1.4
2022/04/25 07:07:20.000   47.447036604   19.216765626   196.4862   2   8   0.0199   0.0707   0.0330   0.0177  -0.0297  -0.0145   0.00    1.4
2022/04/25 07:07:21.000   47.447036610   19.216765613   196.4902   2   8   0.0199   0.0705   0.0329   0.0176  -0.0296  -0.0145   0.00    1.4
2022/04/25 07:07:22.000   47.447036583   19.216765587   196.4914   2   8   0.0199   0.0704   0.0328   0.0176  -0.0296  -0.0144   0.00    1.4
2022/04/25 07:07:23.000   47.447036575   19.216765586   196.4953   2   8   0.0198   0.0702   0.0327   0.0175  -0.0295  -0.0144   0.00    1.4
2022/04/25 07:07:24.000   47.447036567   19.216765572   196.4958   2   8   0.0197   0.0701   0.0327   0.0175  -0.0295  -0.0143   0.00    1.4
2022/04/25 07:07:25.000   47.447036570   19.216765556   196.4968   2   8   0.0197   0.0700   0.0326   0.0175  -0.0294  -0.0143   0.00    1.4
2022/04/25 07:07:26.000   47.447036540   19.216765561   196.4981   2   8   0.0196   0.0698   0.0325   0.0174  -0.0293  -0.0143   0.00    1.4
2022/04/25 07:07:27.000   47.447036556   19.216765534   196.4997   2   8   0.0196   0.0697   0.0324   0.0174  -0.0293  -0.0142   0.00    1.4
2022/04/25 07:07:28.000   47.447036528   19.216765536   196.5057   2   8   0.0196   0.0695   0.0323   0.0173  -0.0292  -0.0142   0.00    1.5
2022/04/25 07:07:29.000   47.447036547   19.216765555   196.5071   2   8   0.0195   0.0694   0.0322   0.0173  -0.0292  -0.0141   0.00    1.5
2022/04/25 07:07:30.000   47.447036543   19.216765520   196.5071   2   8   0.0194   0.0693   0.0322   0.0173  -0.0291  -0.0141   0.00    1.5
2022/04/25 07:07:31.000   47.447036537   19.216765517   196.5109   2   8   0.0194   0.0691   0.0321   0.0172  -0.0291  -0.0140   0.00    1.5
2022/04/25 07:07:32.000   47.447036526   19.216765528   196.5106   2   8   0.0194   0.0690   0.0320   0.0172  -0.0290  -0.0140   0.00    1.5
2022/04/25 07:07:34.000   47.447036521   19.216765518   196.5127   2   8   0.0193   0.0689   0.0319   0.0172  -0.0290  -0.0140   0.00    1.5
2022/04/25 07:07:43.000   47.447036546   19.216765537   196.5111   2   8   0.0193   0.0687   0.0318   0.0171  -0.0290  -0.0140   0.00    1.5
2022/04/25 07:07:45.000   47.447036534   19.216765529   196.5136   2   8   0.0192   0.0686   0.0317   0.0171  -0.0289  -0.0139   0.00    1.5
2022/04/25 07:07:49.000   47.447036544   19.216765558   196.5148   2   8   0.0192   0.0684   0.0316   0.0170  -0.0289  -0.0138   0.00    1.5
2022/04/25 07:07:50.000   47.447036524   19.216765590   196.5163   2   8   0.0191   0.0683   0.0315   0.0170  -0.0288  -0.0138   0.00    1.5
2022/04/25 07:07:51.000   47.447036517   19.216765575   196.5177   2   8   0.0191   0.0681   0.0314   0.0170  -0.0288  -0.0138   0.00    1.6
2022/04/25 07:07:52.000   47.447036525   19.216765604   196.5195   2   8   0.0190   0.0680   0.0314   0.0169  -0.0287  -0.0137   0.00    1.6
2022/04/25 07:07:53.000   47.447036511   19.216765555   196.5217   2   8   0.0190   0.0678   0.0313   0.0169  -0.0286  -0.0137   0.00    1.6
2022/04/25 07:07:54.000   47.447036510   19.216765573   196.5276   2   8   0.0189   0.0677   0.0312   0.0168  -0.0286  -0.0136   0.00    1.6
