% program   : RTKLIB ver.demo5 b33c
% inp file  : /home/hegyi/Paripa/Downloaded_zips/PildoBox20522115h.obs
% inp file  : /home/hegyi/Paripa/Reference_for_Kinematic/PildoBox205202211507.obs
% inp file  : /home/hegyi/Paripa/Downloaded_zips/PildoBox20522115g.nav
% obs start : 2022/04/25 07:00:02.0 GPST (week2207 111602.0s)
% obs end   : 2022/04/25 08:00:01.0 GPST (week2207 115201.0s)
% pos mode  : kinematic
% freqs     : L1+L2/E5b
% solution  : forward
% elev mask : 10.0 deg
% dynamics  : off
% tidecorr  : off
% ionos opt : broadcast
% tropo opt : saastamoinen
% ephemeris : broadcast
% navi sys  : gps galileo
% amb res   : fix and hold
% val thres : 3.0
% antenna1  :                       ( 0.0000  0.0000  0.0000)
% antenna2  :                       ( 0.0000  0.0000  0.0000)
% ref pos   : 47.479024318  19.057702703  178.8463
%
% (lat/lon/height=WGS84/ellipsoidal,Q=1:fix,2:float,3:sbas,4:dgps,5:single,6:ppp,ns=# of satellites)
%  GPST                  latitude(deg) longitude(deg)  height(m)   Q  ns   sdn(m)   sde(m)   sdu(m)  sdne(m)  sdeu(m)  sdun(m) age(s)  ratio
2022/04/25 07:00:02.000   47.447037585   19.216765024   196.4260   2  17   1.5466   1.1342   2.5773  -0.7391   0.6283  -0.7345   0.00    0.0
2022/04/25 07:00:03.000   47.447037236   19.216765634   196.5571   2  17   1.1990   0.8633   1.9444  -0.5936   0.5109  -0.6000   0.00    0.0
2022/04/25 07:00:04.000   47.447036794   19.216765638   196.6308   2  17   1.0134   0.7245   1.6249  -0.5085   0.4392  -0.5176   0.00    0.0
2022/04/25 07:00:05.000   47.447036459   19.216765689   196.6555   2  17   0.8933   0.6365   1.4233  -0.4514   0.3905  -0.4616   0.00    0.0
2022/04/25 07:00:06.000   47.447036147   19.216765496   196.6924   2  17   0.8072   0.5743   1.2809  -0.4097   0.3547  -0.4205   0.00    0.0
2022/04/25 07:00:07.000   47.447035893   19.216765448   196.7428   2  17   0.7415   0.5273   1.1733  -0.3775   0.3269  -0.3888   0.00    0.0
2022/04/25 07:00:08.000   47.447035991   19.216765502   196.7843   2  17   0.6891   0.4901   1.0880  -0.3516   0.3046  -0.3633   0.00    0.0
2022/04/25 07:00:09.000   47.447036401   19.216765409   196.7321   2  17   0.6459   0.4598   1.0181  -0.3302   0.2860  -0.3424   0.00    0.0
2022/04/25 07:00:10.000   47.447036320   19.216765412   196.7543   2  17   0.6095   0.4343   0.9594  -0.3120   0.2702  -0.3247   0.00    0.0
2022/04/25 07:00:11.000   47.447036382   19.216765387   196.7417   2  17   0.5782   0.4127   0.9090  -0.2963   0.2565  -0.3096   0.00    0.0
2022/04/25 07:00:12.000   47.447036368   19.216765165   196.7504   2  17   0.5508   0.3939   0.8650  -0.2825   0.2445  -0.2964   0.00    0.0
2022/04/25 07:00:13.000   47.447036368   19.216765141   196.7663   2  17   0.5266   0.3774   0.8262  -0.2703   0.2339  -0.2849   0.00    0.0
2022/04/25 07:00:14.000   47.447036528   19.216765039   196.7698   2  17   0.5049   0.3627   0.7915  -0.2594   0.2243  -0.2746   0.00    0.0
2022/04/25 07:00:15.000   47.447036660   19.216764995   196.7705   2  17   0.4853   0.3496   0.7601  -0.2495   0.2156  -0.2654   0.00    0.0
2022/04/25 07:00:16.000   47.447036797   19.216764896   196.7491   2  17   0.4675   0.3377   0.7316  -0.2404   0.2077  -0.2570   0.00    0.0
2022/04/25 07:00:19.000   47.447036883   19.216764867   196.7458   2  17   0.4495   0.3267   0.7028  -0.2314   0.1996  -0.2496   0.00    0.0
2022/04/25 07:00:22.000   47.447036899   19.216764893   196.7548   2   8   0.4416   0.3207   0.6907  -0.2266   0.1954  -0.2483   0.00    0.0
2022/04/25 07:00:23.000   47.447037012   19.216764908   196.7781   2  17   0.4234   0.3108   0.6615  -0.2175   0.1873  -0.2407   0.00    0.0
2022/04/25 07:00:24.000   47.447036925   19.216764988   196.7977   2   8   0.4167   0.3056   0.6512  -0.2134   0.1837  -0.2396   0.00    0.0
2022/04/25 07:00:25.000   47.447036914   19.216765014   196.8084   2   8   0.4100   0.3007   0.6408  -0.2096   0.1805  -0.2381   0.00    0.0
2022/04/25 07:00:26.000   47.447037007   19.216764958   196.7932   2  17   0.3937   0.2923   0.6146  -0.2013   0.1730  -0.2304   0.00    0.0
2022/04/25 07:00:27.000   47.447037010   19.216765011   196.8174   2   8   0.3882   0.2879   0.6061  -0.1981   0.1700  -0.2298   0.00    0.0
2022/04/25 07:00:29.000   47.447037060   19.216765006   196.8217   2   8   0.3824   0.2838   0.5969  -0.1949   0.1676  -0.2291   0.00    0.0
2022/04/25 07:00:30.000   47.447037104   19.216764948   196.8334   2  17   0.3667   0.2763   0.5717  -0.1869   0.1600  -0.2211   0.00    0.0
2022/04/25 07:00:31.000   47.447037187   19.216764838   196.8377   2  17   0.3529   0.2693   0.5497  -0.1798   0.1529  -0.2145   0.00    0.0
2022/04/25 07:00:33.000   47.447037292   19.216764783   196.8134   2  17   0.3398   0.2627   0.5288  -0.1730   0.1462  -0.2083   0.00    0.0
2022/04/25 07:00:34.000   47.447037462   19.216764728   196.7841   2  17   0.3282   0.2566   0.5102  -0.1670   0.1403  -0.2027   1.00    0.0
2022/04/25 07:00:35.000   47.447037517   19.216764622   196.7271   2  17   0.3183   0.2511   0.4938  -0.1619   0.1352  -0.1976   2.00    0.0
2022/04/25 07:00:36.000   47.447037541   19.216764580   196.7292   2   8   0.3150   0.2482   0.4885  -0.1602   0.1336  -0.1981   0.00    0.0
2022/04/25 07:00:37.000   47.447037605   19.216764486   196.7500   2   8   0.3116   0.2455   0.4829  -0.1584   0.1325  -0.1979   0.00    0.0
2022/04/25 07:00:38.000   47.447037611   19.216764478   196.7396   2  17   0.3009   0.2404   0.4660  -0.1529   0.1273  -0.1918   0.00    0.0
2022/04/25 07:00:40.000   47.447037580   19.216764444   196.7524   2  17   0.2909   0.2354   0.4504  -0.1477   0.1220  -0.1865   0.00    0.0
2022/04/25 07:00:41.000   47.447037453   19.216764441   196.7365   2  17   0.2817   0.2307   0.4361  -0.1429   0.1171  -0.1817   0.00    0.0
2022/04/25 07:00:42.000   47.447037440   19.216764392   196.7182   2  17   0.2733   0.2263   0.4229  -0.1385   0.1126  -0.1772   0.00    0.0
2022/04/25 07:00:45.000   47.447037427   19.216764375   196.7148   2   8   0.2709   0.2241   0.4189  -0.1374   0.1117  -0.1782   0.00    1.6
2022/04/25 07:00:46.000   47.447037193   19.216764557   196.7384   2  17   0.2619   0.2199   0.4046  -0.1327   0.1072  -0.1728   0.00    1.3
2022/04/25 07:00:47.000   47.447036128   19.216766031   197.4483   1   8   0.0089   0.0059   0.0149  -0.0036   0.0030  -0.0033   0.00    4.4
2022/04/25 07:00:49.000   47.447037245   19.216764426   196.7396   2  17   0.2509   0.2139   0.3871  -0.1271   0.1018  -0.1682   0.00    1.0
2022/04/25 07:00:50.000   47.447037234   19.216764407   196.7558   2  17   0.2431   0.2101   0.3750  -0.1230   0.0973  -0.1638   0.00    1.0
2022/04/25 07:00:51.000   47.447037150   19.216764401   196.7684   2  17   0.2360   0.2064   0.3639  -0.1191   0.0932  -0.1596   0.00    1.0
2022/04/25 07:00:53.000   47.447037075   19.216764404   196.7733   2  17   0.2291   0.2029   0.3531  -0.1155   0.0892  -0.1557   0.00    1.0
2022/04/25 07:00:54.000   47.447037004   19.216764412   196.7710   2  17   0.2227   0.1996   0.3432  -0.1121   0.0856  -0.1520   0.00    1.0
2022/04/25 07:00:55.000   47.447036926   19.216764521   196.7909   2  17   0.2168   0.1965   0.3340  -0.1089   0.0822  -0.1485   0.00    1.1
2022/04/25 07:00:56.000   47.447036809   19.216764580   196.8150   2  17   0.2113   0.1935   0.3254  -0.1060   0.0790  -0.1453   0.00    1.1
2022/04/25 07:00:57.000   47.447036753   19.216764548   196.8260   2  17   0.2061   0.1906   0.3174  -0.1033   0.0761  -0.1422   0.00    1.1
2022/04/25 07:00:58.000   47.447036706   19.216764572   196.8374   2  17   0.2013   0.1878   0.3098  -0.1007   0.0733  -0.1394   0.00    1.1
2022/04/25 07:00:59.000   47.447036722   19.216764566   196.8523   2  17   0.1967   0.1852   0.3027  -0.0983   0.0708  -0.1367   0.00    1.3
2022/04/25 07:01:00.000   47.447036669   19.216764553   196.8693   2  17   0.1924   0.1826   0.2960  -0.0961   0.0684  -0.1341   0.00    1.3
2022/04/25 07:01:01.000   47.447036750   19.216764483   196.8678   2  17   0.1883   0.1802   0.2897  -0.0939   0.0660  -0.1316   0.00    1.3
2022/04/25 07:01:02.000   47.447036749   19.216764470   196.8824   2  17   0.1844   0.1778   0.2836  -0.0919   0.0639  -0.1293   0.00    1.3
2022/04/25 07:01:03.000   47.447036751   19.216764466   196.8900   2  17   0.1807   0.1756   0.2779  -0.0899   0.0618  -0.1270   0.00    1.3
2022/04/25 07:01:04.000   47.447036731   19.216764404   196.8874   2  17   0.1772   0.1734   0.2724  -0.0881   0.0598  -0.1249   0.00    2.1
2022/04/25 07:01:05.000   47.447036649   19.216764493   196.8950   2  17   0.1738   0.1713   0.2671  -0.0863   0.0579  -0.1228   0.00    2.1
2022/04/25 07:01:06.000   47.447036731   19.216764446   196.8850   2  17   0.1706   0.1692   0.2621  -0.0846   0.0561  -0.1209   0.00    2.1
2022/04/25 07:01:07.000   47.447036730   19.216764472   196.8873   2  17   0.1675   0.1672   0.2572  -0.0830   0.0544  -0.1189   0.00    2.1
2022/04/25 07:01:08.000   47.447036703   19.216764479   196.8910   2  17   0.1645   0.1653   0.2526  -0.0815   0.0527  -0.1171   0.00    2.1
2022/04/25 07:01:09.000   47.447036668   19.216764523   196.8939   2  17   0.1616   0.1634   0.2481  -0.0800   0.0511  -0.1153   0.00    2.1
2022/04/25 07:01:10.000   47.447036698   19.216764508   196.8983   2  17   0.1588   0.1616   0.2438  -0.0785   0.0495  -0.1136   0.00    2.1
2022/04/25 07:01:11.000   47.447036743   19.216764543   196.8957   2  17   0.1562   0.1598   0.2397  -0.0771   0.0480  -0.1119   0.00    2.1
2022/04/25 07:01:12.000   47.447036715   19.216764579   196.8938   2  17   0.1536   0.1581   0.2357  -0.0758   0.0465  -0.1103   0.00    2.1
2022/04/25 07:01:13.000   47.447036689   19.216764597   196.9004   2  17   0.1511   0.1564   0.2318  -0.0745   0.0450  -0.1087   0.00    2.1
2022/04/25 07:01:14.000   47.447036732   19.216764570   196.9012   2  17   0.1487   0.1548   0.2280  -0.0732   0.0436  -0.1072   0.00    1.4
2022/04/25 07:01:15.000   47.447036742   19.216764598   196.8945   2  17   0.1463   0.1532   0.2244  -0.0720   0.0423  -0.1057   0.00    2.1
2022/04/25 07:01:16.000   47.447036722   19.216764549   196.8952   2  17   0.1440   0.1517   0.2209  -0.0708   0.0409  -0.1043   0.00    1.4
2022/04/25 07:01:17.000   47.447036726   19.216764524   196.8856   2  17   0.1418   0.1502   0.2175  -0.0697   0.0396  -0.1029   0.00    2.2
2022/04/25 07:01:18.000   47.447036694   19.216764495   196.8995   2  17   0.1397   0.1487   0.2141  -0.0686   0.0384  -0.1015   0.00    2.2
2022/04/25 07:01:19.000   47.447036726   19.216764492   196.8911   2  17   0.1376   0.1473   0.2109  -0.0675   0.0371  -0.1002   0.00    2.2
2022/04/25 07:01:20.000   47.447037253   19.216762449   196.6899   1  17   0.0063   0.0049   0.0098  -0.0035   0.0025  -0.0033   0.00    3.3
2022/04/25 07:01:21.000   47.447037252   19.216762444   196.6919   1  17   0.0064   0.0042   0.0099  -0.0034   0.0028  -0.0034   0.00    3.3
2022/04/25 07:01:22.000   47.447037271   19.216762449   196.6931   1  17   0.0064   0.0044   0.0098  -0.0034   0.0028  -0.0034   0.00    3.3
2022/04/25 07:01:23.000   47.447037278   19.216762442   196.6956   1  17   0.0063   0.0043   0.0099  -0.0033   0.0029  -0.0035   0.00    3.3
2022/04/25 07:01:24.000   47.447037269   19.216762442   196.6920   1  17   0.0063   0.0045   0.0099  -0.0032   0.0030  -0.0035   0.00    3.3
2022/04/25 07:01:25.000   47.447037253   19.216762446   196.6957   1  17   0.0063   0.0043   0.0099  -0.0033   0.0029  -0.0033   0.00    3.3
2022/04/25 07:01:26.000   47.447037282   19.216762437   196.6909   1  17   0.0064   0.0046   0.0099  -0.0033   0.0028  -0.0035   0.00    3.3
2022/04/25 07:01:27.000   47.447036763   19.216764506   196.8696   2  17   0.1228   0.1369   0.1880  -0.0597   0.0277  -0.0906   0.00    2.6
2022/04/25 07:01:29.000   47.447036765   19.216764487   196.8724   2   8   0.1227   0.1362   0.1879  -0.0598   0.0276  -0.0912   0.00    1.3
2022/04/25 07:01:30.000   47.447036759   19.216764467   196.8671   2  17   0.1206   0.1351   0.1845  -0.0588   0.0270  -0.0896   0.00    2.6
2022/04/25 07:01:31.000   47.447037203   19.216762390   196.7030   1  17   0.0065   0.0042   0.0100  -0.0033   0.0031  -0.0035   1.00    3.7
2022/04/25 07:01:32.000   47.447036779   19.216764387   196.8483   2   8   0.1189   0.1332   0.1818  -0.0580   0.0257  -0.0890   0.00    1.3
2022/04/25 07:01:33.000   47.447036769   19.216764365   196.8485   2   8   0.1185   0.1327   0.1811  -0.0580   0.0263  -0.0891   1.00    1.3
2022/04/25 07:01:34.000   47.447036814   19.216764346   196.8481   2   8   0.1181   0.1321   0.1802  -0.0580   0.0269  -0.0892   0.00    1.3
2022/04/25 07:01:35.000   47.447037205   19.216762387   196.7034   1  17   0.0063   0.0047   0.0098  -0.0032   0.0027  -0.0033   0.00    3.6
2022/04/25 07:01:36.000   47.447037211   19.216762385   196.7024   1  17   0.0065   0.0043   0.0098  -0.0033   0.0030  -0.0031   0.00    3.6
2022/04/25 07:01:37.000   47.447037203   19.216762391   196.7038   1  17   0.0065   0.0044   0.0098  -0.0034   0.0028  -0.0032   0.00    3.6
2022/04/25 07:01:38.000   47.447037212   19.216762376   196.6998   1  17   0.0063   0.0048   0.0099  -0.0034   0.0025  -0.0031   0.00    3.6
2022/04/25 07:01:39.000   47.447037212   19.216762363   196.7007   1  17   0.0063   0.0046   0.0099  -0.0034   0.0026  -0.0032   0.00    3.6
2022/04/25 07:01:40.000   47.447037196   19.216762380   196.7022   1  17   0.0063   0.0045   0.0098  -0.0033   0.0027  -0.0033   0.00    3.6
2022/04/25 07:01:41.000   47.447037217   19.216762389   196.7020   1  17   0.0063   0.0045   0.0099  -0.0031   0.0025  -0.0032   0.00    3.6
2022/04/25 07:01:42.000   47.447037209   19.216762380   196.6995   1  17   0.0062   0.0042   0.0099  -0.0031   0.0032  -0.0034   0.00    3.6
2022/04/25 07:01:43.000   47.447037213   19.216762386   196.7024   1  17   0.0065   0.0043   0.0100  -0.0031   0.0030  -0.0032   0.00    3.6
2022/04/25 07:01:44.000   47.447037217   19.216762367   196.6986   1  17   0.0064   0.0039   0.0099  -0.0034   0.0028  -0.0034   0.00    3.6
2022/04/25 07:01:45.000   47.447036934   19.216764217   196.8159   2  17   0.1006   0.1206   0.1536  -0.0484   0.0097  -0.0765   0.00    2.7
2022/04/25 07:01:46.000   47.447037184   19.216762385   196.7029   1  17   0.0064   0.0045   0.0099  -0.0030   0.0028  -0.0034   0.00    3.6
2022/04/25 07:01:47.000   47.447037208   19.216762373   196.7001   1  17   0.0063   0.0044   0.0098  -0.0035   0.0027  -0.0032   0.00    3.6
2022/04/25 07:01:48.000   47.447037205   19.216762378   196.6980   1  17   0.0063   0.0048   0.0100  -0.0033   0.0026  -0.0033   0.00    3.5
2022/04/25 07:01:49.000   47.447037209   19.216762383   196.6985   1  17   0.0064   0.0046   0.0099  -0.0032   0.0028  -0.0034   0.00    3.5
2022/04/25 07:01:50.000   47.447037202   19.216762393   196.6978   1  17   0.0064   0.0044   0.0098  -0.0033   0.0027  -0.0032   0.00    3.5
2022/04/25 07:01:51.000   47.447037206   19.216762377   196.6980   1  17   0.0065   0.0046   0.0098  -0.0029   0.0030  -0.0030   0.00    3.5
2022/04/25 07:01:52.000   47.447037205   19.216762379   196.6991   1  17   0.0062   0.0047   0.0100  -0.0030   0.0028  -0.0031   1.00    3.5
2022/04/25 07:01:54.000   47.447037202   19.216762390   196.7004   1  16   0.0066   0.0045   0.0101  -0.0036   0.0023  -0.0027   0.00    3.5
2022/04/25 07:01:55.000   47.447037212   19.216762373   196.6997   1  16   0.0065   0.0043   0.0100  -0.0033   0.0026  -0.0028   0.00    3.5
2022/04/25 07:01:56.000   47.447037206   19.216762379   196.6990   1  16   0.0066   0.0044   0.0100  -0.0034   0.0027  -0.0028   0.00    3.5
2022/04/25 07:01:57.000   47.447037197   19.216762380   196.7000   1  16   0.0065   0.0042   0.0101  -0.0036   0.0026  -0.0028   0.00    3.5
2022/04/25 07:01:58.000   47.447037043   19.216764528   196.8086   2  16   0.0868   0.1103   0.1325  -0.0408  -0.0171  -0.0663   0.00    2.8
2022/04/25 07:01:59.000   47.447037065   19.216764519   196.8066   2  16   0.0857   0.1095   0.1310  -0.0403  -0.0178  -0.0656   0.00    2.0
2022/04/25 07:02:00.000   47.447037058   19.216764563   196.8068   2  16   0.0848   0.1088   0.1295  -0.0398  -0.0185  -0.0648   0.00    1.4
2022/04/25 07:02:01.000   47.447037056   19.216764635   196.8058   2  16   0.0838   0.1080   0.1280  -0.0392  -0.0191  -0.0641   0.00    2.8
2022/04/25 07:02:02.000   47.447037056   19.216764693   196.8052   2  16   0.0828   0.1073   0.1266  -0.0387  -0.0195  -0.0634   0.00    1.9
2022/04/25 07:02:03.000   47.447037052   19.216764703   196.8044   2  16   0.0819   0.1066   0.1252  -0.0382  -0.0200  -0.0627   0.00    2.7
2022/04/25 07:02:04.000   47.447037175   19.216762457   196.7097   1  16   0.0066   0.0045   0.0100  -0.0035   0.0027  -0.0027   0.00    3.0
2022/04/25 07:02:05.000   47.447037158   19.216762469   196.7060   1  16   0.0068   0.0041   0.0100  -0.0034   0.0029  -0.0029   0.00    3.1
2022/04/25 07:02:06.000   47.447037180   19.216762466   196.7058   1  16   0.0066   0.0047   0.0100  -0.0032   0.0026  -0.0027   0.00    3.1
2022/04/25 07:02:07.000   47.447037145   19.216762484   196.7059   1  16   0.0066   0.0048   0.0100  -0.0032   0.0024  -0.0028   0.00    3.1
2022/04/25 07:02:08.000   47.447037161   19.216762481   196.7061   1  16   0.0066   0.0043   0.0100  -0.0033   0.0030  -0.0024   0.00    3.1
2022/04/25 07:02:09.000   47.447037156   19.216762467   196.7072   1  16   0.0067   0.0043   0.0101  -0.0033   0.0027  -0.0029   0.00    3.1
2022/04/25 07:02:10.000   47.447037167   19.216762461   196.7078   1  16   0.0066   0.0048   0.0101  -0.0034   0.0025  -0.0028   0.00    3.1
2022/04/25 07:02:11.000   47.447037176   19.216762462   196.7066   1  16   0.0068   0.0042   0.0099  -0.0035   0.0030  -0.0023   0.00    3.2
2022/04/25 07:02:12.000   47.447037156   19.216762471   196.7058   1  16   0.0065   0.0046   0.0100  -0.0035   0.0027  -0.0028   0.00    3.3
2022/04/25 07:02:13.000   47.447037171   19.216762459   196.7040   1  16   0.0067   0.0046   0.0100  -0.0032   0.0028  -0.0026   0.00    3.3
2022/04/25 07:02:14.000   47.447037047   19.216764873   196.8125   2  16   0.0728   0.0991   0.1114  -0.0334  -0.0234  -0.0561   0.00    3.0
2022/04/25 07:02:15.000   47.447037267   19.216762410   196.6973   1  16   0.0064   0.0041   0.0100  -0.0034   0.0024  -0.0030   0.00    3.0
2022/04/25 07:02:16.000   47.447037265   19.216762425   196.7002   1  16   0.0065   0.0045   0.0099  -0.0034   0.0027  -0.0024   0.00    3.0
2022/04/25 07:02:17.000   47.447037253   19.216762421   196.6995   1  16   0.0066   0.0047   0.0099  -0.0033   0.0024  -0.0025   0.00    3.0
2022/04/25 07:02:18.000   47.447037287   19.216762395   196.6977   1  16   0.0065   0.0051   0.0099  -0.0032   0.0025  -0.0026   0.00    3.1
2022/04/25 07:02:19.000   47.447037268   19.216762401   196.6992   1  16   0.0065   0.0041   0.0101  -0.0033   0.0028  -0.0029   0.00    3.1
2022/04/25 07:02:20.000   47.447037262   19.216762408   196.6960   1  16   0.0067   0.0043   0.0100  -0.0033   0.0027  -0.0027   0.00    3.1
2022/04/25 07:02:21.000   47.447037272   19.216762409   196.6976   1  16   0.0065   0.0046   0.0099  -0.0033   0.0028  -0.0024   0.00    3.1
2022/04/25 07:02:22.000   47.447037266   19.216762408   196.6945   1  16   0.0066   0.0041   0.0100  -0.0036   0.0025  -0.0028   0.00    3.1
2022/04/25 07:02:23.000   47.447037254   19.216762420   196.6976   1  16   0.0067   0.0041   0.0101  -0.0033   0.0025  -0.0028   0.00    3.1
2022/04/25 07:02:24.000   47.447037259   19.216762413   196.6954   1  16   0.0066   0.0047   0.0100  -0.0033   0.0021  -0.0026   0.00    3.2
2022/04/25 07:02:25.000   47.447037286   19.216762392   196.7004   1  16   0.0067   0.0043   0.0100  -0.0034   0.0027  -0.0025   0.00    3.2
2022/04/25 07:02:26.000   47.447037288   19.216762390   196.6967   1  16   0.0065   0.0040   0.0100  -0.0034   0.0027  -0.0026   0.00    3.2
2022/04/25 07:02:27.000   47.447037244   19.216762413   196.6941   1  16   0.0067   0.0043   0.0099  -0.0033   0.0026  -0.0029   0.00    3.1
2022/04/25 07:02:28.000   47.447037244   19.216762405   196.6942   1  16   0.0064   0.0046   0.0099  -0.0033   0.0027  -0.0026   0.00    3.1
2022/04/25 07:02:29.000   47.447037247   19.216762404   196.6938   1  16   0.0064   0.0045   0.0099  -0.0034   0.0025  -0.0028   0.00    3.2
2022/04/25 07:02:30.000   47.447037247   19.216762411   196.6914   1  16   0.0065   0.0048   0.0099  -0.0032   0.0026  -0.0023   0.00    3.2
2022/04/25 07:02:31.000   47.447037239   19.216762409   196.6954   1  16   0.0067   0.0044   0.0099  -0.0033   0.0023  -0.0025   0.00    3.2
2022/04/25 07:02:32.000   47.447037255   19.216762409   196.6966   1  16   0.0066   0.0040   0.0100  -0.0034   0.0027  -0.0026   0.00    3.2
2022/04/25 07:02:34.000   47.447037238   19.216762406   196.6942   1  16   0.0065   0.0042   0.0100  -0.0034   0.0025  -0.0028   0.00    3.2
2022/04/25 07:02:41.000   47.447036992   19.216765259   196.7694   2   8   0.0611   0.0881   0.0938  -0.0273  -0.0255  -0.0476   0.00    1.2
2022/04/25 07:02:42.000   47.447036966   19.216765260   196.7711   2   8   0.0609   0.0878   0.0935  -0.0274  -0.0252  -0.0477   0.00    1.2
2022/04/25 07:02:43.000   47.447037230   19.216762404   196.6921   1  16   0.0064   0.0042   0.0099  -0.0034   0.0027  -0.0028   0.00    3.3
2022/04/25 07:02:44.000   47.447037004   19.216765286   196.7688   2   8   0.0601   0.0869   0.0923  -0.0271  -0.0249  -0.0472   0.00    1.2
2022/04/25 07:02:45.000   47.447037239   19.216762404   196.6921   1  16   0.0066   0.0046   0.0100  -0.0034   0.0025  -0.0028   0.00    3.3
2022/04/25 07:02:46.000   47.447037010   19.216765267   196.7675   2   8   0.0594   0.0861   0.0910  -0.0269  -0.0247  -0.0468   0.00    1.2
2022/04/25 07:02:48.000   47.447037255   19.216762396   196.6933   1  16   0.0065   0.0041   0.0100  -0.0033   0.0026  -0.0027   0.00    3.3
2022/04/25 07:02:49.000   47.447037263   19.216762397   196.6908   1  16   0.0064   0.0046   0.0099  -0.0034   0.0027  -0.0026   0.00    3.3
2022/04/25 07:02:50.000   47.447037253   19.216762406   196.6937   1  16   0.0065   0.0048   0.0099  -0.0034   0.0023  -0.0029   0.00    3.3
2022/04/25 07:02:51.000   47.447037258   19.216762394   196.6913   1  16   0.0065   0.0049   0.0100  -0.0032   0.0021  -0.0029   0.00    3.3
2022/04/25 07:02:52.000   47.447037253   19.216762397   196.6908   1  16   0.0067   0.0045   0.0099  -0.0034   0.0026  -0.0026   0.00    3.4
2022/04/25 07:02:53.000   47.447037240   19.216762403   196.6893   1  16   0.0065   0.0046   0.0100  -0.0030   0.0028  -0.0028   0.00    3.4
2022/04/25 07:02:54.000   47.447037261   19.216762375   196.6948   1  16   0.0065   0.0046   0.0099  -0.0031   0.0026  -0.0027   0.00    3.4
2022/04/25 07:02:55.000   47.447037252   19.216762405   196.6936   1  16   0.0064   0.0044   0.0099  -0.0032   0.0028  -0.0026   0.00    3.4
2022/04/25 07:02:56.000   47.447037260   19.216762400   196.6924   1  16   0.0064   0.0047   0.0100  -0.0034   0.0025  -0.0027   0.00    3.5
2022/04/25 07:02:57.000   47.447037247   19.216762400   196.6921   1  16   0.0066   0.0045   0.0099  -0.0032   0.0027  -0.0026   0.00    3.5
2022/04/25 07:02:58.000   47.447037269   19.216762372   196.6926   1  16   0.0065   0.0043   0.0099  -0.0034   0.0026  -0.0024   0.00    3.5
2022/04/25 07:02:59.000   47.447037253   19.216762384   196.6922   1  16   0.0065   0.0048   0.0100  -0.0034   0.0020  -0.0029   0.00    3.5
2022/04/25 07:03:00.000   47.447037253   19.216762394   196.6911   1  16   0.0065   0.0041   0.0099  -0.0033   0.0023  -0.0026   0.00    3.6
2022/04/25 07:03:01.000   47.447037259   19.216762401   196.6911   1  16   0.0065   0.0039   0.0099  -0.0033   0.0027  -0.0028   0.00    3.6
2022/04/25 07:03:02.000   47.447037246   19.216762415   196.6946   1  16   0.0064   0.0047   0.0100  -0.0031   0.0026  -0.0024   0.00    3.6
2022/04/25 07:03:03.000   47.447037270   19.216762365   196.6915   1  16   0.0064   0.0047   0.0098  -0.0033   0.0026  -0.0023   0.00    3.6
2022/04/25 07:03:04.000   47.447037263   19.216762397   196.6910   1  16   0.0065   0.0041   0.0100  -0.0036   0.0025  -0.0024   0.00    3.7
2022/04/25 07:03:05.000   47.447037259   19.216762380   196.6928   1  16   0.0066   0.0044   0.0099  -0.0034   0.0024  -0.0028   0.00    3.7
2022/04/25 07:03:06.000   47.447037281   19.216762377   196.6922   1  16   0.0065   0.0044   0.0099  -0.0033   0.0026  -0.0026   0.00    3.7
2022/04/25 07:03:07.000   47.447037273   19.216762387   196.6920   1  16   0.0065   0.0042   0.0100  -0.0034   0.0027  -0.0027   0.00    3.7
2022/04/25 07:03:08.000   47.447037248   19.216762397   196.6932   1  16   0.0065   0.0041   0.0100  -0.0032   0.0029  -0.0029   0.00    4.7
2022/04/25 07:03:09.000   47.447037265   19.216762379   196.6937   1  16   0.0065   0.0044   0.0099  -0.0034   0.0025  -0.0027   0.00    5.6
2022/04/25 07:03:10.000   47.447037250   19.216762392   196.6935   1  16   0.0065   0.0040   0.0099  -0.0034   0.0026  -0.0028   0.00    6.5
2022/04/25 07:03:11.000   47.447037262   19.216762390   196.6929   1  16   0.0067   0.0042   0.0100  -0.0034   0.0028  -0.0025   0.00    7.4
2022/04/25 07:03:12.000   47.447037249   19.216762401   196.6916   1  16   0.0065   0.0045   0.0100  -0.0033   0.0024  -0.0027   0.00    8.3
2022/04/25 07:03:13.000   47.447037269   19.216762398   196.6936   1  16   0.0067   0.0044   0.0099  -0.0034   0.0024  -0.0028   0.00    9.2
2022/04/25 07:03:14.000   47.447037260   19.216762405   196.6941   1  16   0.0066   0.0048   0.0099  -0.0030   0.0027  -0.0025   0.00    9.4
2022/04/25 07:03:15.000   47.447037280   19.216762386   196.6928   1  16   0.0066   0.0041   0.0100  -0.0033   0.0026  -0.0025   0.00    9.6
2022/04/25 07:03:16.000   47.447037273   19.216762382   196.6916   1  16   0.0063   0.0049   0.0099  -0.0031   0.0023  -0.0027   0.00    9.8
2022/04/25 07:03:17.000   47.447037271   19.216762393   196.6910   1  16   0.0067   0.0043   0.0099  -0.0034   0.0025  -0.0026   0.00   10.0
2022/04/25 07:03:18.000   47.447037270   19.216762393   196.6917   1  16   0.0066   0.0043   0.0099  -0.0033   0.0029  -0.0025   0.00   10.2
2022/04/25 07:03:19.000   47.447037271   19.216762386   196.6933   1  16   0.0064   0.0046   0.0099  -0.0035   0.0023  -0.0026   0.00   10.4
2022/04/25 07:03:20.000   47.447037268   19.216762400   196.6924   1  16   0.0065   0.0045   0.0100  -0.0034   0.0024  -0.0026   0.00   10.5
2022/04/25 07:03:21.000   47.447037247   19.216762398   196.6893   1  16   0.0065   0.0042   0.0099  -0.0032   0.0025  -0.0026   0.00   10.7
2022/04/25 07:03:22.000   47.447037256   19.216762384   196.6924   1  16   0.0065   0.0044   0.0099  -0.0032   0.0027  -0.0022   0.00   10.8
2022/04/25 07:03:23.000   47.447037270   19.216762375   196.6901   1  16   0.0065   0.0046   0.0099  -0.0034   0.0024  -0.0025   0.00   11.0
2022/04/25 07:03:24.000   47.447037282   19.216762366   196.6935   1  16   0.0065   0.0044   0.0098  -0.0033   0.0026  -0.0024   0.00   11.2
2022/04/25 07:03:25.000   47.447037266   19.216762392   196.6919   1  16   0.0067   0.0040   0.0099  -0.0032   0.0028  -0.0023   0.00   11.3
2022/04/25 07:03:26.000   47.447037273   19.216762377   196.6931   1  16   0.0064   0.0042   0.0100  -0.0034   0.0024  -0.0027   0.00   11.5
2022/04/25 07:03:27.000   47.447037270   19.216762381   196.6910   1  16   0.0066   0.0046   0.0100  -0.0032   0.0023  -0.0027   0.00   11.6
2022/04/25 07:03:28.000   47.447037276   19.216762377   196.6910   1  16   0.0065   0.0042   0.0099  -0.0034   0.0026  -0.0027   0.00   11.8
2022/04/25 07:03:29.000   47.447037286   19.216762377   196.6911   1  16   0.0066   0.0042   0.0099  -0.0034   0.0023  -0.0027   0.00   11.9
2022/04/25 07:03:30.000   47.447037283   19.216762386   196.6909   1  16   0.0066   0.0044   0.0099  -0.0033   0.0029  -0.0026   0.00   12.1
2022/04/25 07:03:31.000   47.447037278   19.216762377   196.6935   1  16   0.0068   0.0047   0.0099  -0.0033   0.0023  -0.0027   0.00   12.2
2022/04/25 07:03:32.000   47.447037274   19.216762385   196.6894   1  16   0.0066   0.0044   0.0099  -0.0032   0.0027  -0.0024   0.00   12.4
2022/04/25 07:03:33.000   47.447037261   19.216762397   196.6934   1  16   0.0064   0.0045   0.0099  -0.0034   0.0024  -0.0026   0.00   12.5
2022/04/25 07:03:34.000   47.447037292   19.216762374   196.6922   1  16   0.0066   0.0045   0.0099  -0.0031   0.0027  -0.0024   0.00   12.7
2022/04/25 07:03:35.000   47.447037284   19.216762379   196.6921   1  16   0.0066   0.0041   0.0098  -0.0035   0.0026  -0.0028   0.00   12.8
2022/04/25 07:03:36.000   47.447037284   19.216762374   196.6942   1  16   0.0066   0.0045   0.0098  -0.0032   0.0026  -0.0024   0.00   13.0
2022/04/25 07:03:37.000   47.447037286   19.216762383   196.6920   1  16   0.0066   0.0046   0.0099  -0.0035   0.0021  -0.0029   0.00   13.1
2022/04/25 07:03:38.000   47.447037278   19.216762370   196.6914   1  16   0.0065   0.0043   0.0100  -0.0032   0.0026  -0.0026   0.00   13.3
2022/04/25 07:03:39.000   47.447037285   19.216762382   196.6911   1  16   0.0066   0.0041   0.0100  -0.0033   0.0025  -0.0023   0.00   13.4
2022/04/25 07:03:40.000   47.447037264   19.216762384   196.6905   1  16   0.0065   0.0047   0.0098  -0.0034   0.0023  -0.0024   0.00   13.5
2022/04/25 07:03:41.000   47.447037269   19.216762378   196.6920   1  16   0.0065   0.0041   0.0098  -0.0033   0.0028  -0.0027   0.00   13.7
2022/04/25 07:03:42.000   47.447037288   19.216762369   196.6913   1  16   0.0064   0.0043   0.0099  -0.0031   0.0027  -0.0026   0.00   13.8
2022/04/25 07:03:43.000   47.447037281   19.216762384   196.6915   1  16   0.0066   0.0043   0.0098  -0.0033   0.0024  -0.0025   0.00   13.9
2022/04/25 07:03:44.000   47.447037295   19.216762369   196.6912   1  16   0.0067   0.0040   0.0098  -0.0033   0.0027  -0.0027   0.00   14.0
2022/04/25 07:03:45.000   47.447037282   19.216762379   196.6911   1  16   0.0065   0.0043   0.0099  -0.0034   0.0024  -0.0028   0.00   14.1
2022/04/25 07:03:46.000   47.447037287   19.216762366   196.6904   1  16   0.0066   0.0045   0.0098  -0.0036   0.0023  -0.0026   0.00   14.2
2022/04/25 07:03:47.000   47.447037262   19.216762383   196.6937   1  16   0.0063   0.0047   0.0099  -0.0035   0.0022  -0.0023   0.00   14.3
2022/04/25 07:03:48.000   47.447037281   19.216762355   196.6925   1  16   0.0066   0.0041   0.0100  -0.0033   0.0029  -0.0025   0.00   14.4
2022/04/25 07:03:49.000   47.447037282   19.216762382   196.6938   1  16   0.0066   0.0042   0.0099  -0.0033   0.0026  -0.0025   0.00   14.5
2022/04/25 07:03:50.001   47.447037297   19.216762372   196.6908   1  16   0.0064   0.0043   0.0099  -0.0034   0.0025  -0.0027   0.00   14.5
2022/04/25 07:03:51.000   47.447037285   19.216762379   196.6896   1  16   0.0065   0.0044   0.0098  -0.0032   0.0024  -0.0026   0.00   14.5
2022/04/25 07:03:52.000   47.447037297   19.216762370   196.6905   1  16   0.0065   0.0042   0.0100  -0.0034   0.0026  -0.0025   0.00   14.6
2022/04/25 07:03:53.000   47.447037302   19.216762356   196.6918   1  16   0.0067   0.0046   0.0099  -0.0034   0.0023  -0.0028   0.00   14.6
2022/04/25 07:03:54.000   47.447037288   19.216762366   196.6910   1  16   0.0064   0.0044   0.0098  -0.0034   0.0026  -0.0024   0.00   14.7
2022/04/25 07:03:55.000   47.447037301   19.216762370   196.6920   1  16   0.0065   0.0039   0.0099  -0.0034   0.0026  -0.0026   0.00   14.7
2022/04/25 07:03:56.000   47.447037290   19.216762368   196.6924   1  16   0.0064   0.0046   0.0099  -0.0033   0.0027  -0.0023   0.00   14.7
2022/04/25 07:03:57.000   47.447037307   19.216762361   196.6900   1  16   0.0066   0.0047   0.0099  -0.0032   0.0027  -0.0024   0.00   14.8
2022/04/25 07:03:58.000   47.447037293   19.216762375   196.6910   1  16   0.0067   0.0040   0.0098  -0.0034   0.0025  -0.0027   0.00   14.8
2022/04/25 07:03:59.000   47.447037290   19.216762356   196.6899   1  16   0.0066   0.0046   0.0098  -0.0032   0.0023  -0.0028   0.00   14.8
2022/04/25 07:04:00.000   47.447037295   19.216762365   196.6898   1  16   0.0065   0.0041   0.0097  -0.0034   0.0027  -0.0025   0.00   14.8
2022/04/25 07:04:01.000   47.447037290   19.216762371   196.6913   1  16   0.0064   0.0038   0.0099  -0.0033   0.0027  -0.0025   0.00   14.9
2022/04/25 07:04:02.000   47.447037302   19.216762362   196.6910   1  16   0.0065   0.0043   0.0099  -0.0033   0.0026  -0.0025   0.00   14.9
2022/04/25 07:04:03.000   47.447037286   19.216762367   196.6925   1  16   0.0065   0.0043   0.0099  -0.0034   0.0024  -0.0028   0.00   14.9
2022/04/25 07:04:04.000   47.447037305   19.216762368   196.6919   1  16   0.0065   0.0043   0.0100  -0.0033   0.0026  -0.0025   0.00   14.9
2022/04/25 07:04:05.000   47.447037291   19.216762362   196.6919   1  16   0.0066   0.0044   0.0099  -0.0032   0.0028  -0.0026   0.00   15.0
2022/04/25 07:04:06.000   47.447037281   19.216762379   196.6921   1  16   0.0067   0.0041   0.0098  -0.0033   0.0027  -0.0025   0.00   15.0
2022/04/25 07:04:07.000   47.447037284   19.216762364   196.6889   1  16   0.0065   0.0048   0.0100  -0.0033   0.0023  -0.0028   0.00   15.0
2022/04/25 07:04:08.000   47.447037302   19.216762370   196.6907   1  16   0.0067   0.0043   0.0099  -0.0033   0.0026  -0.0026   0.00   15.1
2022/04/25 07:04:09.000   47.447037294   19.216762355   196.6901   1  16   0.0065   0.0044   0.0098  -0.0032   0.0027  -0.0025   0.00   15.1
2022/04/25 07:04:10.000   47.447037295   19.216762359   196.6917   1  16   0.0066   0.0049   0.0099  -0.0031   0.0023  -0.0024   0.00   15.1
2022/04/25 07:04:11.000   47.447037295   19.216762369   196.6903   1  16   0.0064   0.0043   0.0098  -0.0033   0.0025  -0.0025   0.00   15.1
2022/04/25 07:04:12.000   47.447037299   19.216762346   196.6889   1  16   0.0066   0.0045   0.0098  -0.0032   0.0025  -0.0026   0.00   15.1
2022/04/25 07:04:13.000   47.447037281   19.216762380   196.6903   1  16   0.0066   0.0045   0.0098  -0.0035   0.0023  -0.0027   0.00   15.1
2022/04/25 07:04:14.000   47.447037280   19.216762364   196.6912   1  16   0.0066   0.0045   0.0098  -0.0033   0.0026  -0.0024   0.00   15.1
2022/04/25 07:04:15.000   47.447037303   19.216762369   196.6878   1  16   0.0065   0.0043   0.0099  -0.0033   0.0024  -0.0026   0.00   15.2
2022/04/25 07:04:16.000   47.447037299   19.216762365   196.6872   1  16   0.0066   0.0042   0.0098  -0.0035   0.0024  -0.0028   0.00   15.2
2022/04/25 07:04:17.000   47.447037303   19.216762351   196.6889   1  16   0.0067   0.0043   0.0098  -0.0034   0.0026  -0.0025   0.00   15.2
2022/04/25 07:04:18.000   47.447037313   19.216762347   196.6900   1  16   0.0065   0.0043   0.0098  -0.0034   0.0024  -0.0027   0.00   15.2
2022/04/25 07:04:19.000   47.447037307   19.216762337   196.6877   1  16   0.0066   0.0044   0.0099  -0.0033   0.0023  -0.0022   0.00   15.3
2022/04/25 07:04:20.000   47.447037320   19.216762335   196.6892   1  16   0.0065   0.0045   0.0098  -0.0032   0.0026  -0.0025   0.00   15.3
2022/04/25 07:04:21.000   47.447037308   19.216762351   196.6888   1  16   0.0065   0.0043   0.0099  -0.0030   0.0025  -0.0027   0.00   15.3
2022/04/25 07:04:22.000   47.447037308   19.216762353   196.6881   1  16   0.0067   0.0041   0.0099  -0.0033   0.0026  -0.0026   0.00   15.3
2022/04/25 07:04:23.000   47.447037291   19.216762363   196.6881   1  16   0.0065   0.0044   0.0098  -0.0033   0.0026  -0.0025   0.00   15.3
2022/04/25 07:04:24.000   47.447037310   19.216762359   196.6885   1  16   0.0065   0.0044   0.0099  -0.0033   0.0027  -0.0026   0.00   15.4
2022/04/25 07:04:25.000   47.447037306   19.216762334   196.6874   1  16   0.0065   0.0045   0.0098  -0.0034   0.0024  -0.0025   0.00   15.4
2022/04/25 07:04:26.000   47.447037310   19.216762361   196.6852   1  16   0.0064   0.0047   0.0099  -0.0035   0.0022  -0.0024   0.00   15.4
2022/04/25 07:04:27.000   47.447037291   19.216762354   196.6877   1  16   0.0067   0.0044   0.0098  -0.0033   0.0026  -0.0025   0.00   15.4
2022/04/25 07:04:28.000   47.447037289   19.216762363   196.6879   1  16   0.0065   0.0043   0.0098  -0.0032   0.0026  -0.0026   0.00   15.4
2022/04/25 07:04:29.000   47.447037303   19.216762352   196.6864   1  16   0.0064   0.0049   0.0097  -0.0034   0.0020  -0.0021   0.00   15.4
2022/04/25 07:04:30.000   47.447037293   19.216762360   196.6867   1  16   0.0067   0.0045   0.0099  -0.0033   0.0025  -0.0025   0.00   15.4
2022/04/25 07:04:31.000   47.447037310   19.216762362   196.6863   1  16   0.0066   0.0043   0.0099  -0.0034   0.0027  -0.0026   0.00   15.5
2022/04/25 07:04:32.000   47.447037289   19.216762374   196.6865   1  16   0.0067   0.0043   0.0098  -0.0032   0.0025  -0.0024   0.00   15.5
2022/04/25 07:04:33.000   47.447037301   19.216762372   196.6876   1  16   0.0065   0.0043   0.0097  -0.0033   0.0026  -0.0024   0.00   15.5
2022/04/25 07:04:34.000   47.447037297   19.216762357   196.6872   1  16   0.0064   0.0044   0.0098  -0.0033   0.0024  -0.0026   0.00   15.5
2022/04/25 07:04:35.000   47.447037301   19.216762350   196.6880   1  16   0.0067   0.0040   0.0098  -0.0032   0.0028  -0.0027   0.00   15.5
2022/04/25 07:04:36.000   47.447037295   19.216762335   196.6884   1  16   0.0065   0.0047   0.0098  -0.0032   0.0027  -0.0023   0.00   15.5
2022/04/25 07:04:37.000   47.447037307   19.216762355   196.6872   1  16   0.0068   0.0041   0.0099  -0.0034   0.0026  -0.0027   0.00   15.5
2022/04/25 07:04:38.000   47.447037310   19.216762361   196.6868   1  16   0.0065   0.0045   0.0098  -0.0033   0.0025  -0.0024   0.00   15.6
2022/04/25 07:04:39.000   47.447037298   19.216762357   196.6875   1  16   0.0067   0.0042   0.0099  -0.0033   0.0022  -0.0024   0.00   15.6
2022/04/25 07:04:40.000   47.447037294   19.216762344   196.6856   1  16   0.0065   0.0045   0.0099  -0.0033   0.0023  -0.0025   0.00   15.6
2022/04/25 07:04:41.000   47.447037300   19.216762374   196.6886   1  16   0.0064   0.0043   0.0097  -0.0033   0.0027  -0.0027   0.00   15.6
2022/04/25 07:04:42.000   47.447037298   19.216762360   196.6881   1  16   0.0065   0.0047   0.0099  -0.0032   0.0025  -0.0026   0.00   15.6
2022/04/25 07:04:43.000   47.447037310   19.216762348   196.6860   1  16   0.0064   0.0046   0.0099  -0.0034   0.0019  -0.0025   0.00   15.6
2022/04/25 07:04:44.000   47.447037300   19.216762366   196.6854   1  16   0.0065   0.0046   0.0097  -0.0033   0.0026  -0.0022   0.00   15.6
2022/04/25 07:04:45.000   47.447037301   19.216762350   196.6863   1  16   0.0064   0.0042   0.0099  -0.0032   0.0026  -0.0025   0.00   15.6
2022/04/25 07:04:46.000   47.447037293   19.216762368   196.6873   1  16   0.0067   0.0041   0.0098  -0.0034   0.0025  -0.0024   0.00   15.6
2022/04/25 07:04:47.000   47.447037309   19.216762360   196.6857   1  16   0.0066   0.0044   0.0098  -0.0031   0.0026  -0.0026   0.00   15.6
2022/04/25 07:04:48.000   47.447037293   19.216762357   196.6878   1  16   0.0066   0.0047   0.0099  -0.0032   0.0020  -0.0025   0.00   15.6
2022/04/25 07:04:49.000   47.447037325   19.216762340   196.6852   1  16   0.0064   0.0043   0.0098  -0.0034   0.0024  -0.0025   0.00   15.6
2022/04/25 07:04:50.000   47.447037305   19.216762348   196.6858   1  16   0.0065   0.0043   0.0099  -0.0031   0.0026  -0.0023   0.00   15.6
2022/04/25 07:04:51.000   47.447037306   19.216762337   196.6867   1  16   0.0065   0.0044   0.0098  -0.0035   0.0023  -0.0025   0.00   15.6
2022/04/25 07:04:52.000   47.447037310   19.216762354   196.6871   1  16   0.0067   0.0044   0.0098  -0.0034   0.0025  -0.0023   0.00   15.6
2022/04/25 07:04:53.000   47.447037305   19.216762339   196.6875   1  16   0.0065   0.0044   0.0098  -0.0033   0.0022  -0.0027   0.00   15.6
2022/04/25 07:04:54.000   47.447037320   19.216762335   196.6884   1  16   0.0065   0.0043   0.0098  -0.0032   0.0027  -0.0024   0.00   15.6
2022/04/25 07:04:55.000   47.447037315   19.216762352   196.6895   1  16   0.0065   0.0043   0.0098  -0.0034   0.0025  -0.0023   0.00   15.6
2022/04/25 07:04:56.000   47.447037302   19.216762362   196.6875   1  16   0.0064   0.0051   0.0098  -0.0031   0.0024  -0.0024   0.00   15.6
2022/04/25 07:04:57.000   47.447037302   19.216762353   196.6871   1  16   0.0065   0.0047   0.0098  -0.0032   0.0024  -0.0021   0.00   15.6
2022/04/25 07:04:58.000   47.447037292   19.216762353   196.6877   1  16   0.0065   0.0045   0.0098  -0.0033   0.0023  -0.0026   0.00   15.6
2022/04/25 07:04:59.000   47.447037289   19.216762353   196.6869   1  16   0.0065   0.0045   0.0098  -0.0031   0.0024  -0.0025   0.00   15.6
2022/04/25 07:05:00.000   47.447037306   19.216762350   196.6865   1  16   0.0066   0.0046   0.0098  -0.0032   0.0025  -0.0024   0.00   15.6
2022/04/25 07:05:01.000   47.447037301   19.216762363   196.6867   1  16   0.0064   0.0040   0.0098  -0.0033   0.0027  -0.0025   0.00   15.6
2022/04/25 07:05:02.000   47.447037322   19.216762350   196.6870   1  16   0.0064   0.0048   0.0098  -0.0031   0.0023  -0.0026   0.00   15.7
2022/04/25 07:05:03.000   47.447037297   19.216762361   196.6849   1  16   0.0064   0.0045   0.0099  -0.0034   0.0023  -0.0024   0.00   15.7
2022/04/25 07:05:04.000   47.447037302   19.216762359   196.6876   1  16   0.0065   0.0044   0.0098  -0.0032   0.0028  -0.0021   0.00   15.7
2022/04/25 07:05:05.000   47.447037303   19.216762348   196.6870   1  16   0.0064   0.0042   0.0098  -0.0033   0.0022  -0.0026   0.00   15.7
2022/04/25 07:05:06.000   47.447037314   19.216762344   196.6882   1  16   0.0066   0.0039   0.0099  -0.0034   0.0026  -0.0026   0.00   15.7
2022/04/25 07:05:07.000   47.447037305   19.216762357   196.6860   1  16   0.0066   0.0042   0.0098  -0.0033   0.0026  -0.0025   0.00   15.7
2022/04/25 07:05:08.000   47.447037303   19.216762342   196.6865   1  16   0.0068   0.0041   0.0099  -0.0034   0.0025  -0.0023   0.00   15.7
2022/04/25 07:05:09.000   47.447037304   19.216762345   196.6875   1  16   0.0065   0.0045   0.0098  -0.0034   0.0024  -0.0024   0.00   15.7
2022/04/25 07:05:10.000   47.447037312   19.216762360   196.6891   1  16   0.0065   0.0046   0.0098  -0.0034   0.0020  -0.0026   0.00   15.7
2022/04/25 07:05:11.000   47.447037296   19.216762360   196.6833   1  16   0.0065   0.0041   0.0098  -0.0033   0.0026  -0.0023   0.00   15.7
2022/04/25 07:05:12.000   47.447037307   19.216762351   196.6871   1  16   0.0066   0.0043   0.0097  -0.0032   0.0024  -0.0024   0.00   15.7
2022/04/25 07:05:13.000   47.447037309   19.216762345   196.6840   1  16   0.0065   0.0045   0.0098  -0.0032   0.0023  -0.0025   0.00   15.7
2022/04/25 07:05:14.000   47.447037302   19.216762365   196.6863   1  16   0.0065   0.0043   0.0099  -0.0032   0.0025  -0.0024   0.00   15.7
2022/04/25 07:05:15.000   47.447037296   19.216762350   196.6855   1  16   0.0067   0.0045   0.0098  -0.0030   0.0025  -0.0022   0.00   15.7
2022/04/25 07:05:16.000   47.447037295   19.216762352   196.6846   1  16   0.0065   0.0041   0.0098  -0.0033   0.0024  -0.0024   0.00   15.7
2022/04/25 07:05:17.000   47.447037306   19.216762370   196.6878   1  16   0.0066   0.0047   0.0097  -0.0032   0.0024  -0.0022   0.00   15.7
2022/04/25 07:05:18.000   47.447037298   19.216762366   196.6855   1  16   0.0066   0.0042   0.0098  -0.0034   0.0027  -0.0024   0.00   15.7
2022/04/25 07:05:19.000   47.447037310   19.216762359   196.6856   1  16   0.0067   0.0044   0.0098  -0.0030   0.0028  -0.0022   0.00   15.7
2022/04/25 07:05:20.000   47.447037316   19.216762352   196.6853   1  16   0.0065   0.0044   0.0099  -0.0033   0.0019  -0.0027   0.00   15.7
2022/04/25 07:05:21.000   47.447037317   19.216762349   196.6861   1  16   0.0065   0.0041   0.0098  -0.0033   0.0024  -0.0024   0.00   15.7
2022/04/25 07:05:22.000   47.447037302   19.216762361   196.6868   1  16   0.0066   0.0043   0.0098  -0.0033   0.0024  -0.0026   0.00   15.7
2022/04/25 07:05:23.000   47.447037324   19.216762356   196.6850   1  16   0.0065   0.0046   0.0098  -0.0032   0.0024  -0.0025   0.00   15.7
2022/04/25 07:05:24.000   47.447037318   19.216762352   196.6843   1  16   0.0067   0.0046   0.0099  -0.0033   0.0027  -0.0021   1.00   15.7
2022/04/25 07:05:26.000   47.447037284   19.216762363   196.6865   1  16   0.0064   0.0042   0.0098  -0.0032   0.0023  -0.0027   0.00   15.7
2022/04/25 07:05:27.000   47.447037301   19.216762359   196.6864   1  16   0.0065   0.0043   0.0098  -0.0034   0.0025  -0.0024   0.00   15.8
2022/04/25 07:05:28.000   47.447037312   19.216762356   196.6864   1  16   0.0066   0.0044   0.0098  -0.0033   0.0022  -0.0024   0.00   15.8
2022/04/25 07:05:29.000   47.447037306   19.216762360   196.6842   1  16   0.0068   0.0044   0.0098  -0.0032   0.0025  -0.0023   0.00   15.8
2022/04/25 07:05:30.000   47.447037301   19.216762377   196.6860   1  16   0.0065   0.0041   0.0097  -0.0034   0.0025  -0.0025   0.00   15.8
2022/04/25 07:05:31.000   47.447037308   19.216762346   196.6831   1  16   0.0065   0.0042   0.0098  -0.0033   0.0026  -0.0021   0.00   15.8
2022/04/25 07:05:32.000   47.447037315   19.216762350   196.6844   1  16   0.0065   0.0038   0.0098  -0.0035   0.0027  -0.0025   0.00   15.8
2022/04/25 07:05:33.000   47.447037308   19.216762371   196.6850   1  16   0.0066   0.0044   0.0098  -0.0032   0.0027  -0.0024   0.00   15.8
2022/04/25 07:05:34.000   47.447037313   19.216762358   196.6880   1  16   0.0065   0.0042   0.0098  -0.0033   0.0026  -0.0022   0.00   15.9
2022/04/25 07:05:35.000   47.447037300   19.216762374   196.6846   1  16   0.0065   0.0045   0.0098  -0.0032   0.0023  -0.0022   0.00   15.9
2022/04/25 07:05:36.000   47.447037317   19.216762355   196.6869   1  16   0.0066   0.0040   0.0098  -0.0034   0.0024  -0.0022   0.00   15.9
2022/04/25 07:05:37.000   47.447037321   19.216762352   196.6859   1  16   0.0065   0.0042   0.0099  -0.0034   0.0024  -0.0024   0.00   15.9
2022/04/25 07:05:38.000   47.447037303   19.216762356   196.6846   1  16   0.0065   0.0043   0.0097  -0.0034   0.0028  -0.0023   0.00   15.9
2022/04/25 07:05:39.000   47.447037328   19.216762360   196.6852   1  16   0.0065   0.0049   0.0099  -0.0030   0.0023  -0.0022   0.00   15.9
2022/04/25 07:05:40.000   47.447037308   19.216762361   196.6857   1  16   0.0066   0.0042   0.0098  -0.0033   0.0026  -0.0024   0.00   15.9
2022/04/25 07:05:41.000   47.447037311   19.216762357   196.6837   1  16   0.0064   0.0046   0.0099  -0.0032   0.0023  -0.0024   0.00   15.9
2022/04/25 07:05:43.000   47.447037310   19.216762356   196.6853   1  16   0.0065   0.0045   0.0097  -0.0033   0.0025  -0.0026   0.00   15.9
2022/04/25 07:05:44.000   47.447037300   19.216762383   196.6862   1  16   0.0066   0.0046   0.0098  -0.0031   0.0024  -0.0025   0.00   15.9
2022/04/25 07:05:45.000   47.447037316   19.216762369   196.6837   1  16   0.0064   0.0046   0.0098  -0.0032   0.0021  -0.0024   0.00   15.9
2022/04/25 07:05:46.000   47.447037313   19.216762362   196.6860   1  16   0.0064   0.0041   0.0098  -0.0033   0.0025  -0.0025   0.00   16.0
2022/04/25 07:05:47.000   47.447037299   19.216762368   196.6851   1  16   0.0065   0.0043   0.0098  -0.0030   0.0026  -0.0023   0.00   16.0
2022/04/25 07:05:48.000   47.447037302   19.216762363   196.6837   1  16   0.0066   0.0041   0.0098  -0.0032   0.0026  -0.0024   0.00   15.9
2022/04/25 07:05:49.000   47.447037302   19.216762358   196.6862   1  16   0.0067   0.0042   0.0097  -0.0032   0.0025  -0.0024   0.00   15.9
2022/04/25 07:05:50.000   47.447037312   19.216762367   196.6847   1  16   0.0066   0.0045   0.0098  -0.0033   0.0026  -0.0023   0.00   15.9
2022/04/25 07:05:51.000   47.447037314   19.216762359   196.6860   1  16   0.0065   0.0042   0.0098  -0.0034   0.0024  -0.0026   0.00   15.9
2022/04/25 07:05:52.000   47.447037318   19.216762358   196.6837   1  16   0.0066   0.0043   0.0098  -0.0033   0.0022  -0.0023   0.00   15.9
2022/04/25 07:05:53.000   47.447037317   19.216762391   196.6863   1  16   0.0065   0.0041   0.0096  -0.0033   0.0026  -0.0022   0.00   15.9
2022/04/25 07:05:54.000   47.447037297   19.216762362   196.6838   1  16   0.0065   0.0043   0.0097  -0.0034   0.0023  -0.0021   0.00   15.9
2022/04/25 07:05:55.000   47.447037311   19.216762361   196.6837   1  16   0.0067   0.0044   0.0097  -0.0031   0.0026  -0.0023   0.00   15.9
2022/04/25 07:05:56.000   47.447037321   19.216762363   196.6849   1  16   0.0063   0.0045   0.0097  -0.0031   0.0023  -0.0024   0.00   15.9
2022/04/25 07:05:57.000   47.447037321   19.216762353   196.6851   1  16   0.0067   0.0046   0.0097  -0.0032   0.0025  -0.0020   0.00   16.0
2022/04/25 07:05:58.000   47.447037308   19.216762369   196.6845   1  16   0.0066   0.0047   0.0098  -0.0032   0.0022  -0.0025   0.00   16.0
2022/04/25 07:05:59.000   47.447037298   19.216762358   196.6826   1  16   0.0066   0.0044   0.0098  -0.0031   0.0024  -0.0026   0.00   16.0
2022/04/25 07:06:00.000   47.447037301   19.216762364   196.6857   1  16   0.0065   0.0042   0.0097  -0.0031   0.0026  -0.0023   0.00   16.0
2022/04/25 07:06:01.000   47.447037321   19.216762354   196.6845   1  16   0.0066   0.0043   0.0097  -0.0032   0.0021  -0.0025   0.00   16.0
2022/04/25 07:06:02.000   47.447037302   19.216762367   196.6824   1  16   0.0066   0.0045   0.0097  -0.0033   0.0024  -0.0021   0.00   16.0
2022/04/25 07:06:03.000   47.447037307   19.216762360   196.6845   1  16   0.0066   0.0046   0.0098  -0.0033   0.0024  -0.0023   0.00   16.0
2022/04/25 07:06:04.000   47.447037308   19.216762351   196.6836   1  16   0.0067   0.0042   0.0097  -0.0034   0.0024  -0.0018   0.00   16.0
2022/04/25 07:06:05.000   47.447037314   19.216762359   196.6856   1  16   0.0065   0.0048   0.0098  -0.0033   0.0019  -0.0024   0.00   16.0
2022/04/25 07:06:06.000   47.447037323   19.216762361   196.6869   1  16   0.0065   0.0047   0.0097  -0.0032   0.0021  -0.0025   0.00   16.0
2022/04/25 07:06:07.000   47.447037304   19.216762362   196.6846   1  16   0.0065   0.0046   0.0097  -0.0032   0.0025  -0.0021   0.00   16.0
2022/04/25 07:06:08.000   47.447037306   19.216762361   196.6885   1  16   0.0067   0.0044   0.0098  -0.0033   0.0021  -0.0021   0.00   16.0
2022/04/25 07:06:09.000   47.447037308   19.216762352   196.6832   1  16   0.0064   0.0041   0.0098  -0.0032   0.0023  -0.0025   0.00   16.0
2022/04/25 07:06:10.000   47.447037320   19.216762341   196.6853   1  16   0.0066   0.0041   0.0096  -0.0034   0.0025  -0.0024   0.00   16.0
2022/04/25 07:06:11.000   47.447037322   19.216762355   196.6852   1  16   0.0067   0.0043   0.0097  -0.0035   0.0023  -0.0023   0.00   16.0
2022/04/25 07:06:12.000   47.447037307   19.216762365   196.6855   1  16   0.0065   0.0042   0.0098  -0.0034   0.0026  -0.0022   0.00   16.0
2022/04/25 07:06:13.000   47.447037312   19.216762356   196.6854   1  16   0.0065   0.0044   0.0097  -0.0034   0.0022  -0.0023   0.00   16.0
2022/04/25 07:06:14.000   47.447037320   19.216762354   196.6834   1  16   0.0065   0.0046   0.0098  -0.0032   0.0020  -0.0025   0.00   16.0
2022/04/25 07:06:15.000   47.447037317   19.216762360   196.6861   1  16   0.0064   0.0047   0.0097  -0.0030   0.0021  -0.0026   0.00   16.1
2022/04/25 07:06:16.000   47.447037317   19.216762358   196.6851   1  16   0.0064   0.0043   0.0099  -0.0032   0.0024  -0.0024   0.00   16.1
2022/04/25 07:06:17.000   47.447037316   19.216762364   196.6833   1  16   0.0066   0.0041   0.0098  -0.0033   0.0024  -0.0022   0.00   16.1
2022/04/25 07:06:18.000   47.447037313   19.216762352   196.6824   1  16   0.0066   0.0045   0.0098  -0.0033   0.0023  -0.0019   0.00   16.1
2022/04/25 07:06:19.000   47.447037321   19.216762342   196.6830   1  16   0.0066   0.0041   0.0098  -0.0033   0.0025  -0.0027   0.00   16.1
2022/04/25 07:06:20.000   47.447037308   19.216762374   196.6852   1  16   0.0066   0.0043   0.0097  -0.0032   0.0026  -0.0020   0.00   16.1
2022/04/25 07:06:21.000   47.447037311   19.216762371   196.6836   1  16   0.0065   0.0044   0.0097  -0.0033   0.0029  -0.0023   0.00   16.1
2022/04/25 07:06:22.000   47.447037316   19.216762360   196.6842   1  16   0.0066   0.0045   0.0097  -0.0034   0.0024  -0.0023   0.00   16.1
2022/04/25 07:06:23.000   47.447037309   19.216762361   196.6831   1  16   0.0067   0.0041   0.0097  -0.0034   0.0024  -0.0022   0.00   16.1
2022/04/25 07:06:24.000   47.447037335   19.216762352   196.6832   1  16   0.0065   0.0045   0.0098  -0.0034   0.0021  -0.0022   0.00   16.2
2022/04/25 07:06:25.000   47.447037330   19.216762349   196.6853   1  16   0.0064   0.0045   0.0096  -0.0032   0.0027  -0.0023   0.00   16.2
2022/04/25 07:06:26.000   47.447037302   19.216762369   196.6842   1  16   0.0067   0.0043   0.0096  -0.0033   0.0024  -0.0022   0.00   16.2
2022/04/25 07:06:27.000   47.447037316   19.216762358   196.6843   1  16   0.0067   0.0046   0.0097  -0.0034   0.0021  -0.0021   0.00   16.2
2022/04/25 07:06:28.000   47.447037312   19.216762349   196.6817   1  16   0.0064   0.0045   0.0097  -0.0030   0.0024  -0.0022   0.00   16.2
2022/04/25 07:06:29.000   47.447037326   19.216762337   196.6821   1  16   0.0065   0.0041   0.0097  -0.0032   0.0026  -0.0024   0.00   16.2
2022/04/25 07:06:30.000   47.447037320   19.216762345   196.6831   1  16   0.0065   0.0042   0.0097  -0.0033   0.0024  -0.0024   0.00   16.2
2022/04/25 07:06:31.000   47.447037323   19.216762355   196.6853   1  16   0.0067   0.0047   0.0097  -0.0032   0.0026  -0.0022   0.00   16.2
2022/04/25 07:06:32.000   47.447037319   19.216762359   196.6828   1  16   0.0066   0.0041   0.0099  -0.0033   0.0022  -0.0024   0.00   16.2
2022/04/25 07:06:33.000   47.447037339   19.216762339   196.6840   1  16   0.0066   0.0041   0.0097  -0.0034   0.0020  -0.0021   0.00   16.2
2022/04/25 07:06:34.000   47.447037330   19.216762359   196.6851   1  16   0.0067   0.0043   0.0098  -0.0033   0.0023  -0.0025   0.00   16.2
2022/04/25 07:06:35.000   47.447037321   19.216762359   196.6851   1  16   0.0066   0.0045   0.0098  -0.0034   0.0025  -0.0019   0.00   16.2
2022/04/25 07:06:36.000   47.447037322   19.216762358   196.6831   1  16   0.0065   0.0044   0.0098  -0.0033   0.0025  -0.0021   0.00   16.2
2022/04/25 07:06:37.000   47.447037312   19.216762353   196.6863   1  16   0.0066   0.0044   0.0097  -0.0032   0.0022  -0.0024   0.00   16.2
2022/04/25 07:06:38.000   47.447037330   19.216762352   196.6813   1  16   0.0067   0.0041   0.0098  -0.0035   0.0021  -0.0023   0.00   16.2
2022/04/25 07:06:39.000   47.447037320   19.216762347   196.6835   1  16   0.0066   0.0042   0.0097  -0.0033   0.0023  -0.0021   0.00   16.2
2022/04/25 07:06:40.000   47.447037317   19.216762351   196.6847   1  16   0.0065   0.0047   0.0098  -0.0035   0.0021  -0.0020   0.00   16.2
2022/04/25 07:06:41.000   47.447037317   19.216762354   196.6842   1  16   0.0067   0.0043   0.0097  -0.0033   0.0025  -0.0022   0.00   16.3
2022/04/25 07:06:42.000   47.447037321   19.216762350   196.6843   1  16   0.0066   0.0038   0.0098  -0.0033   0.0023  -0.0024   0.00   16.3
2022/04/25 07:06:43.000   47.447037328   19.216762335   196.6846   1  16   0.0065   0.0048   0.0098  -0.0030   0.0021  -0.0024   0.00   16.3
2022/04/25 07:06:44.000   47.447037314   19.216762351   196.6839   1  16   0.0066   0.0041   0.0098  -0.0029   0.0028  -0.0022   0.00   16.3
2022/04/25 07:06:45.000   47.447037322   19.216762361   196.6834   1  16   0.0066   0.0043   0.0097  -0.0032   0.0020  -0.0019   0.00   16.3
2022/04/25 07:06:46.000   47.447037330   19.216762355   196.6862   1  16   0.0065   0.0045   0.0097  -0.0032   0.0023  -0.0023   0.00   16.3
2022/04/25 07:06:47.000   47.447037326   19.216762356   196.6877   1  16   0.0067   0.0040   0.0097  -0.0033   0.0029  -0.0022   0.00   16.3
2022/04/25 07:06:48.000   47.447037323   19.216762358   196.6853   1  16   0.0066   0.0044   0.0096  -0.0034   0.0021  -0.0023   0.00   16.3
2022/04/25 07:06:49.000   47.447037323   19.216762348   196.6858   1  16   0.0066   0.0043   0.0097  -0.0031   0.0024  -0.0024   0.00   16.3
2022/04/25 07:06:50.000   47.447037329   19.216762357   196.6859   1  16   0.0064   0.0046   0.0097  -0.0033   0.0019  -0.0024   0.00   16.3
2022/04/25 07:06:51.000   47.447037302   19.216762363   196.6882   1  16   0.0065   0.0044   0.0097  -0.0031   0.0022  -0.0022   0.00   16.3
2022/04/25 07:06:52.000   47.447037298   19.216762361   196.6864   1  16   0.0065   0.0043   0.0097  -0.0032   0.0021  -0.0023   0.00   16.3
2022/04/25 07:06:53.000   47.447037329   19.216762338   196.6860   1  16   0.0065   0.0046   0.0097  -0.0033   0.0022  -0.0021   0.00   16.3
2022/04/25 07:06:54.000   47.447037313   19.216762365   196.6876   1  16   0.0066   0.0042   0.0096  -0.0033   0.0023  -0.0020   0.00   16.3
2022/04/25 07:06:55.000   47.447037325   19.216762351   196.6852   1  16   0.0064   0.0039   0.0097  -0.0034   0.0026  -0.0025   0.00   16.3
2022/04/25 07:06:56.000   47.447037308   19.216762364   196.6884   1  16   0.0066   0.0043   0.0097  -0.0033   0.0024  -0.0024   0.00   16.3
2022/04/25 07:06:57.000   47.447037316   19.216762338   196.6872   1  16   0.0065   0.0045   0.0097  -0.0031   0.0019  -0.0022   0.00   16.3
2022/04/25 07:06:58.000   47.447037300   19.216762369   196.6872   1  16   0.0066   0.0042   0.0097  -0.0032   0.0025  -0.0021   0.00   16.3
2022/04/25 07:06:59.000   47.447037305   19.216762359   196.6863   1  16   0.0066   0.0044   0.0097  -0.0033   0.0021  -0.0022   0.00   16.3
2022/04/25 07:07:01.000   47.447037295   19.216762353   196.6889   1  16   0.0066   0.0043   0.0096  -0.0034   0.0025  -0.0017   0.00   16.3
2022/04/25 07:07:02.000   47.447037304   19.216762375   196.6888   1  16   0.0065   0.0044   0.0097  -0.0032   0.0024  -0.0024   0.00   16.3
2022/04/25 07:07:03.000   47.447037339   19.216762445   196.6705   1   8   0.0090   0.0054   0.0147  -0.0037   0.0029  -0.0033   0.00    8.9
2022/04/25 07:07:04.000   47.447037304   19.216762360   196.6876   1  16   0.0065   0.0044   0.0096  -0.0033   0.0024  -0.0022   0.00   16.3
2022/04/25 07:07:05.000   47.447037314   19.216762358   196.6858   1  16   0.0065   0.0040   0.0096  -0.0034   0.0026  -0.0022   0.00   16.3
2022/04/25 07:07:06.000   47.447037297   19.216762365   196.6869   1  16   0.0063   0.0042   0.0098  -0.0034   0.0023  -0.0026   0.00   16.3
2022/04/25 07:07:07.000   47.447037303   19.216762353   196.6899   1  16   0.0064   0.0050   0.0097  -0.0031   0.0018  -0.0019   0.00   16.3
2022/04/25 07:07:08.000   47.447037303   19.216762364   196.6888   1  16   0.0067   0.0041   0.0097  -0.0034   0.0024  -0.0021   0.00   16.3
2022/04/25 07:07:09.000   47.447037298   19.216762356   196.6887   1  16   0.0065   0.0043   0.0097  -0.0033   0.0024  -0.0021   0.00   16.3
2022/04/25 07:07:10.000   47.447037303   19.216762344   196.6872   1  16   0.0067   0.0039   0.0097  -0.0032   0.0027  -0.0024   0.00   16.4
2022/04/25 07:07:11.000   47.447037303   19.216762358   196.6893   1  16   0.0065   0.0047   0.0097  -0.0033   0.0020  -0.0019   0.00   16.4
2022/04/25 07:07:12.000   47.447037307   19.216762342   196.6883   1  16   0.0066   0.0039   0.0098  -0.0032   0.0023  -0.0026   0.00   16.4
2022/04/25 07:07:13.000   47.447037308   19.216762343   196.6872   1  16   0.0065   0.0044   0.0097  -0.0033   0.0023  -0.0021   0.00   16.4
2022/04/25 07:07:14.000   47.447037304   19.216762354   196.6869   1  16   0.0066   0.0043   0.0097  -0.0033   0.0023  -0.0022   0.00   16.4
2022/04/25 07:07:15.000   47.447037308   19.216762350   196.6903   1  16   0.0063   0.0045   0.0097  -0.0030   0.0025  -0.0023   0.00   16.4
2022/04/25 07:07:16.000   47.447037313   19.216762356   196.6889   1  16   0.0065   0.0042   0.0096  -0.0033   0.0026  -0.0023   0.00   16.4
2022/04/25 07:07:17.000   47.447037325   19.216762338   196.6870   1  16   0.0066   0.0039   0.0097  -0.0032   0.0024  -0.0022   0.00   16.4
2022/04/25 07:07:18.000   47.447037308   19.216762349   196.6903   1  16   0.0067   0.0042   0.0096  -0.0033   0.0023  -0.0023   0.00   16.4
2022/04/25 07:07:19.000   47.447037296   19.216762355   196.6910   1  16   0.0065   0.0042   0.0097  -0.0034   0.0025  -0.0020   0.00   16.4
2022/04/25 07:07:20.000   47.447037326   19.216762334   196.6877   1  16   0.0064   0.0043   0.0096  -0.0031   0.0023  -0.0022   0.00   16.4
2022/04/25 07:07:21.000   47.447037323   19.216762352   196.6896   1  16   0.0066   0.0041   0.0098  -0.0033   0.0025  -0.0022   0.00   16.4
2022/04/25 07:07:22.000   47.447037310   19.216762342   196.6877   1  16   0.0067   0.0048   0.0096  -0.0032   0.0021  -0.0018   0.00   16.4
